id,idCountry,name,nameCountry,url,urlCountry,numPeople,numReviews,rating,latitude,longitude,totalActivities,actividadesen,snapshot_date
1340,3,Saranda,Albania,saranda,albania,1102.0,49.0,7.632653061224495,39.8679291,20.0212097,9,Actividades en Saranda,2026-01-29
2533,3,Tirana,Albania,tirana,albania,69665.0,4760.0,9.418117647058828,41.3309769,19.7827179,21,Actividades en Tirana,2026-01-29
3435,3,Berat,Albania,berat,albania,23328.0,1579.0,9.542963901203292,40.7114756,19.9197716,10,Actividades en Berat,2026-01-29
4791,3,Shkodra,Albania,shkodra,albania,100.0,8.0,7.499999999999988,42.0644835,19.4588041,4,Actividades en Shkodra,2026-01-29
4939,3,Gjirokastra,Albania,gjirokastra,albania,2110.0,55.0,8.727272727272759,40.0697485,20.0403693,3,Actividades en Gjirokastra,2026-01-29
4940,3,Korca,Albania,korca,albania,0.0,0.0,,40.6176065,20.7799316,2,Actividades en Korca,2026-01-29
5216,3,Vlorë,Albania,vlore,albania,611.0,63.0,9.079365079365056,40.45189067,19.48197837,4,Actividades en Vlorë,2026-01-29
5406,3,Durrës,Albania,durres,albania,656.0,13.0,8.307692307692276,41.3313358,19.4663573,5,Actividades en Durrës,2026-01-29
5817,3,Koman,Albania,koman,albania,0.0,0.0,,42.18970070825655,19.872318805915178,2,Actividades en Koman,2026-01-29
30,4,Berlín,Alemania,berlin,alemania,1862097.0,86270.0,9.362331362775777,52.523533,13.411388,63,Actividades<strong> en Berlín</strong>,2026-01-29
50,4,Múnich,Alemania,munich,alemania,286571.0,32175.0,9.285547785547813,48.136602,11.577111,36,Actividades<strong> en Múnich</strong>,2026-01-29
222,4,Düsseldorf,Alemania,dusseldorf,alemania,21084.0,917.0,9.057709923664111,51.215632,6.775136,16,Actividades<strong> en Düsseldorf</strong>,2026-01-29
228,4,Frankfurt,Alemania,frankfurt,alemania,78045.0,5262.0,9.164115038641857,50.110182,8.682255,17,Actividades<strong> en Frankfurt</strong>,2026-01-29
241,4,Dresde,Alemania,dresde,alemania,8362.0,604.0,9.128421633554057,51.0478796,13.7331183,12,Actividades<strong> en Dresde</strong>,2026-01-29
246,4,Hamburgo,Alemania,hamburgo,alemania,85332.0,7009.0,9.18949350834644,53.5412984,9.9911476,21,Actividades<strong> en Hamburgo</strong>,2026-01-29
258,4,Colonia,Alemania,colonia,alemania,63718.0,5781.0,9.146708181975466,50.938211,6.958829,18,Actividades<strong> en Colonia</strong>,2026-01-29
322,4,Bremen,Alemania,bremen,alemania,14065.0,763.0,8.950668414154652,53.0755458,8.8068737,7,Actividades en Bremen,2026-01-29
685,4,Potsdam,Alemania,potsdam,alemania,10963.0,866.0,9.332748267898385,52.5096449,13.374394,4,Actividades en Potsdam,2026-01-29
691,4,Kiel,Alemania,kiel,alemania,1234.0,46.0,7.8695652173913,54.3217034,10.1320519,4,Actividades en Kiel,2026-01-29
742,4,Tréveris,Alemania,treveris,alemania,148.0,7.0,8.8571428571429,49.7527206,6.6381964,3,Actividades en Tréveris,2026-01-29
880,4,Bonn,Alemania,bonn,alemania,4332.0,285.0,9.080701754386,50.7034931,6.9772184,3,Actividades en Bonn,2026-01-29
1176,4,Leipzig,Alemania,leipzig,alemania,336.0,22.0,9.63636363636366,51.3419134,12.2535533,8,Actividades en Leipzig,2026-01-29
1212,4,Erfurt,Alemania,erfurt,alemania,64.0,0.0,,50.984257,11.0236813,4,Actividades en Erfurt,2026-01-29
1316,4,Núremberg,Alemania,nuremberg,alemania,56816.0,5281.0,9.645930694944107,49.436009,10.9929546,15,Actividades en Núremberg,2026-01-29
1325,4,Rotemburgo,Alemania,rotemburgo,alemania,457.0,19.0,9.2631578947368,49.3657932,10.0924698,3,Actividades en Rotemburgo,2026-01-29
1328,4,Heidelberg,Alemania,heidelberg,alemania,6948.0,466.0,8.493562231759658,49.4056438,8.5435314,7,Actividades en Heidelberg,2026-01-29
1441,4,Maguncia,Alemania,maguncia,alemania,236.0,7.0,5.142857142857157,49.999472,8.273706,5,Actividades en Maguncia,2026-01-29
1504,4,Warnemunde,Alemania,warnemunde,alemania,1066.0,27.0,9.333333333333334,54.176812,12.088336,4,Actividades en Warnemünde,2026-01-29
1573,4,Oberhausen,Alemania,oberhausen,alemania,6.0,0.0,,51.488392,6.880677,4,Actividades en Oberhausen,2026-01-29
1678,4,Hannover,Alemania,hannover,alemania,103.0,3.0,8.666666666666666,52.3693875,9.7362326,6,Actividades en Hannover,2026-01-29
1681,4,Konigswinter,Alemania,konigswinter,alemania,,,,50.6822646,7.2191393,0,Actividades en Konigswinter,2026-01-29
1687,4,Constanza,Alemania,constanza,alemania,4.0,0.0,,47.6604619,9.1714101,3,Actividades en Constanza,2026-01-29
1693,4,Timmendorfer Strand,Alemania,timmendorfer-strand,alemania,0.0,0.0,,53.9939743,10.772319,3,Actividades en Timmendorfer Strand,2026-01-29
1696,4,Espira,Alemania,espira,alemania,0.0,0.0,,49.3167553,8.4365886,3,Actividades en Espira,2026-01-29
1834,4,Cochem,Alemania,cochem,alemania,125.0,4.0,7.5,50.1491117,7.1252883,3,Actividades en Cochem,2026-01-29
2116,4,Rostock,Alemania,rostock,alemania,149.0,9.0,9.1111111111111,54.0913587,12.1037193,3,Actividades en Rostock,2026-01-29
2366,4,Weimar,Alemania,weimar,alemania,3.0,0.0,,50.9769054,11.1783738,3,Actividades en Weimar,2026-01-29
2539,4,Aquisgrán,Alemania,aquisgran,alemania,1750.0,70.0,9.057142857142882,50.7595961,5.956443,5,Actividades en Aquisgrán,2026-01-29
2739,4,Schwerin,Alemania,schwerin,alemania,29.0,1.0,10.0,53.6246558,11.4182855,3,Actividades en Schwerin,2026-01-29
2746,4,Ratisbona,Alemania,ratisbona,alemania,52.0,2.0,10.0,49.0215596,12.0403018,3,Actividades en Ratisbona,2026-01-29
2747,4,Wurzburgo,Alemania,wurzburgo,alemania,418.0,27.0,9.555555555555555,49.7781628,9.8729892,5,Actividades en Wurzburgo,2026-01-29
2749,4,Lubeca,Alemania,lubeca,alemania,93.0,2.0,9.0,53.8655612,10.6867306,4,Actividades en Lubeca,2026-01-29
2752,4,Bamberg,Alemania,bamberg,alemania,891.0,59.0,9.559322033898296,49.891119,10.882397,4,Actividades en Bamberg,2026-01-29
2754,4,Meissen,Alemania,meissen,alemania,18.0,1.0,10.0,51.163115,13.470525,4,Actividades en Meissen,2026-01-29
2756,4,Baden-Baden,Alemania,baden-baden,alemania,523.0,14.0,8.4285714285714,48.7580777,8.2415239,5,Actividades en Baden-Baden,2026-01-29
2758,4,Friburgo de Brisgovia,Alemania,friburgo-de-brisgovia,alemania,19942.0,1476.0,9.707669376693763,47.987226,7.6563371,9,Actividades en Friburgo de Brisgovia,2026-01-29
2759,4,Stuttgart,Alemania,stuttgart,alemania,5940.0,412.0,9.056553398058254,48.7791242,9.0371333,6,Actividades en Stuttgart,2026-01-29
2763,4,Worms,Alemania,worms,alemania,0.0,0.0,,49.6342798,8.3499494,3,Actividades en Worms,2026-01-29
3013,4,Coblenza,Alemania,coblenza,alemania,,,,50.346209,7.4484721,0,Actividades en Coblenza,2026-01-29
3017,4,Wittenberg,Alemania,wittenberg,alemania,9.0,0.0,,51.8713236,12.5309551,3,Actividades en Wittenberg,2026-01-29
3920,4,Karlsruhe ,Alemania,karlsruhe,alemania,,,,49.0157643,8.269451,0,Actividades en Karlsruhe ,2026-01-29
3957,4,Augsburgo,Alemania,augsburgo,alemania,0.0,0.0,,48.3583142,10.7213573,3,Actividades en Augsburgo,2026-01-29
4776,4,Bad Tölz,Alemania,bad-tolz,alemania,0.0,0.0,,47.7849188,11.5710401,3,Actividades en Bad Tölz,2026-01-29
5200,4,Ellingen,Alemania,ellingen,alemania,0.0,0.0,,49.0713284,10.9308097,3,Actividades en Ellingen,2026-01-29
5544,4,Rust,Alemania,rust,alemania,0.0,0.0,,48.26629121606791,7.725863237938029,3,Actividades en Rust,2026-01-29
5592,4,Ulm,Alemania,ulm,alemania,,,,48.39873001290778,9.993254389868326,0,Actividades en Ulm,2026-01-29
5626,4,Erlangen,Alemania,erlangen,alemania,,,,49.59846016987347,11.007659662876419,3,Actividades en Erlangen,2026-01-29
5627,4,Fürth,Alemania,furth,alemania,,,,49.47853985507035,10.98836971216429,3,Actividades en Fürth,2026-01-29
5860,4,Magdeburgo,Alemania,magdeburgo,alemania,,,,52.114132279530324,11.61402575357979,0,Actividades en Magdeburgo,2026-01-29
5861,4,Dortmund,Alemania,dortmund,alemania,,,,51.51405200498782,7.465453897379728,0,Actividades en Dortmund,2026-01-29
5862,4,Oberammergau,Alemania,oberammergau,alemania,,,,47.598373278420915,11.07088803043746,0,Actividades en Oberammergau,2026-01-29
5863,4,Mannheim,Alemania,mannheim,alemania,,,,49.48685390466649,8.457441015541479,0,Actividades en Mannheim,2026-01-29
5864,4,Wiesbaden,Alemania,wiesbaden,alemania,,,,50.07972429280496,8.241484793229247,0,Actividades en Wiesbaden,2026-01-29
2587,5,Escaldes-Engordany,Andorra,escaldes-engordany,andorra,4652.0,181.0,8.674033149171263,42.51183,1.5365334,13,Actividades en Escaldes-Engordany,2026-01-29
3701,5,Canillo,Andorra,canillo,andorra,,,,42.5665273,1.5955857,0,Actividades en Canillo,2026-01-29
3702,5,Encamp,Andorra,encamp,andorra,,,,42.5343599,1.5719132,0,Actividades en Encamp,2026-01-29
3703,5,Ordino,Andorra,ordino,andorra,,,,42.6008355,1.4676225,2,Actividades en Ordino,2026-01-29
3704,5,La Massana,Andorra,la-massana,andorra,,,,42.5434343,1.5056623,4,Actividades en La Massana,2026-01-29
3705,5,Andorra la Vieja,Andorra,andorra-la-vieja,andorra,4990.0,657.0,9.401725012683896,42.5050838,1.502856,10,Actividades en Andorra la Vieja,2026-01-29
3706,5,San Julián de Loria,Andorra,san-julian-de-loria,andorra,15.0,0.0,,42.4629605,1.4148427,3,Actividades en San Julián de Loria,2026-01-29
3185,6,Luanda,Angola,luanda,angola,,,,-8.813453,13.229755,0,Actividades en Luanda,2026-01-29
4760,9,Saint John,Antigua y Barbuda,saint-john,antigua-y-barbuda,24.0,1.0,2.0,17.1255126,-61.8448948,8,Actividades en Saint John,2026-01-29
5608,9,Willikies,Antigua y Barbuda,willikies,antigua-y-barbuda,3.0,0.0,,17.0867835,-61.7017508,2,Actividades en Willikies,2026-01-29
748,11,Medina,Arabia Saudita,medina,arabia-saudita,8.0,2.0,2.0,24.4864164,39.5694311,2,Actividades en Medina,2026-01-29
4614,11,Riad,Arabia Saudita,riad,arabia-saudita,31.0,1.0,10.0,24.7241504,46.2620616,7,Actividades en Riad,2026-01-29
4615,11,Al-Ula,Arabia Saudita,al-ula,arabia-saudita,0.0,0.0,,26.5830482,37.8910278,6,Actividades en Al-Ula,2026-01-29
4616,11,Yeda,Arabia Saudita,yeda,arabia-saudita,24.0,0.0,,21.4498898,38.9309561,8,Actividades en Yeda,2026-01-29
5827,11,Tabuk,Arabia Saudita,tabuk,arabia-saudita,,,,28.386291301549946,36.56177810398903,0,Actividades en Tabuk,2026-01-29
3500,12,Argel,Argelia,argel,argelia,44.0,5.0,7.9999999999999805,36.7538259,3.0534636,5,Actividades en Argel,2026-01-29
48,13,Buenos Aires,Argentina,buenos-aires,argentina,311179.0,12490.0,9.169291166266037,-34.608381,-58.373215,154,Actividades<strong> en Buenos Aires</strong>,2026-01-29
62,13,Puerto Iguazú,Argentina,puerto-iguazu,argentina,16818.0,1062.0,8.548587570621484,-25.597142,-54.578662,28,Actividades<strong> en Puerto Iguazú</strong>,2026-01-29
63,13,El Calafate,Argentina,el-calafate,argentina,47441.0,2632.0,9.26635764944276,-50.340229,-72.270555,55,Actividades<strong> en El Calafate</strong>,2026-01-29
126,13,Bariloche,Argentina,bariloche,argentina,51752.0,3718.0,9.162467276313452,-41.1485,-71.326881,64,Actividades<strong> en Bariloche</strong>,2026-01-29
127,13,Mendoza,Argentina,mendoza,argentina,43870.0,2804.0,8.886155492151211,-32.888668,-68.891478,62,Actividades<strong> en Mendoza</strong>,2026-01-29
128,13,Puerto Madryn,Argentina,puerto-madryn,argentina,1670.0,155.0,9.290322580645146,-42.771657,-65.032361,34,Actividades<strong> en Puerto Madryn</strong>,2026-01-29
129,13,Salta,Argentina,salta,argentina,22163.0,1056.0,8.535669191919213,-24.799986,-65.417835,42,Actividades<strong> en Salta</strong>,2026-01-29
130,13,Ushuaia,Argentina,ushuaia,argentina,24138.0,1690.0,8.99457199210571,-54.80726,-68.302469,67,Actividades<strong> en Ushuaia</strong>,2026-01-29
366,13,Córdoba,Argentina,cordoba-argentina,argentina,805.0,105.0,9.161904761904744,-31.3990508,-64.334427,19,Actividades en Córdoba,2026-01-29
727,13,Rosario,Argentina,rosario,argentina,89.0,5.0,9.6,-32.9509547,-60.6570493,10,Actividades en Rosario,2026-01-29
784,13,San Salvador de Jujuy,Argentina,san-salvador-de-jujuy,argentina,550.0,57.0,7.85964912280701,-24.2052558,-65.3467549,14,Actividades en San Salvador de Jujuy,2026-01-29
799,13,San Miguel de Tucumán,Argentina,san-miguel-tucuman,argentina,651.0,82.0,8.609756097560968,-26.830295,-65.203994,24,Actividades en San Miguel de Tucumán,2026-01-29
1249,13,Tunuyán,Argentina,tunuyan,argentina,50.0,1.0,8.0,-33.5823906,-69.0445688,3,Actividades en Tunuyán,2026-01-29
1267,13,San Martín de los Andes,Argentina,san-martin-andes,argentina,868.0,78.0,8.923076923076927,-40.1556725,-71.3514156,17,Actividades en San Martín de los Andes,2026-01-29
1408,13,La Plata,Argentina,la-plata,argentina,0.0,0.0,,-34.9203674,-58.0232098,3,Actividades en La Plata,2026-01-29
1657,13,San Juan Argentina,Argentina,san-juan-argentina,argentina,627.0,92.0,9.173913043478258,-31.5397988,-68.5372351,14,Actividades en San Juan Argentina,2026-01-29
1714,13,Tigre,Argentina,tigre,argentina,1279.0,97.0,8.804123711340202,-34.422308,-58.5811233,13,Actividades en Tigre,2026-01-29
1771,13,El Chaltén,Argentina,el-chalten,argentina,214.0,12.0,8.333333332499992,-49.3300545,-72.8932423,10,Actividades en El Chaltén,2026-01-29
2134,13,Villa Yacanto,Argentina,villa-yacanto,argentina,,,,-32.0793414,-64.7623464,0,Actividades en Villa Yacanto,2026-01-29
2396,13,Uribelarrea,Argentina,uribelarrea,argentina,,,,-35.27008989,-59.04332609,0,Actividades en Uribelarrea,2026-01-29
2740,13,Olavarría,Argentina,olavarria,argentina,0.0,0.0,,-36.8874628,-60.3160111,3,Actividades en Olavarría,2026-01-29
2762,13,Tilcara,Argentina,tilcara,argentina,106.0,16.0,6.624999999999994,-23.576968,-65.393358,8,Actividades en Tilcara,2026-01-29
2767,13,Purmamarca,Argentina,purmamarca,argentina,374.0,34.0,5.529411764588235,-23.7472038,-65.5100782,12,Actividades en Purmamarca,2026-01-29
2783,13,Cafayate,Argentina,cafayate,argentina,881.0,82.0,8.853658536585376,-26.0719004,-65.9776887,10,Actividades en Cafayate,2026-01-29
2790,13,Esquel,Argentina,esquel,argentina,131.0,10.0,8.2,-42.917379,-71.321489,12,Actividades en Esquel,2026-01-29
2840,13,Barreal,Argentina,barreal,argentina,90.0,5.0,8.8,-31.634771,-69.475306,12,Actividades en Barreal,2026-01-29
2889,13,Las Grutas,Argentina,las-grutas,argentina,10.0,3.0,10.0,-40.807159,-65.082337,5,Actividades en Las Grutas,2026-01-29
3030,13,Cañuelas,Argentina,canuelas,argentina,9.0,2.0,10.0,-35.0693236,-58.7412958,4,Actividades en Cañuelas,2026-01-29
3031,13,San Antonio de Areco,Argentina,san-antonio-de-areco,argentina,99.0,14.0,9.0,-34.2498325,-59.4971244,3,Actividades en San Antonio de Areco,2026-01-29
3040,13,Villa de Merlo,Argentina,villa-de-merlo,argentina,115.0,4.0,8.999999999,-32.347777,-65.016253,8,Actividades en Villa de Merlo,2026-01-29
3044,13,La Falda,Argentina,la-falda,argentina,15.0,2.0,10.0,-31.0850932,-64.5024902,4,Actividades en La Falda,2026-01-29
3048,13,Villa La Angostura,Argentina,villa-la-angostura,argentina,228.0,17.0,7.647058823529405,-40.7632679,-71.6504163,13,Actividades en Villa La Angostura,2026-01-29
3064,13,San Luis,Argentina,san-luis,argentina,23.0,4.0,9.5,-33.3021,-66.337229,11,Actividades en San Luis,2026-01-29
3077,13,Paraná,Argentina,parana,argentina,,,,-31.73302,-60.529838,0,Actividades en Paraná,2026-01-29
3078,13,Potrero de los Funes,Argentina,potrero-de-los-funes,argentina,7.0,1.0,10.0,-33.2227542,-66.2482423,11,Actividades en Potrero de los Funes,2026-01-29
3089,13,Colón,Argentina,colon,argentina,1.0,0.0,,-32.225082,-58.142411,3,Actividades en Colón,2026-01-29
3094,13,La Rioja Argentina,Argentina,la-rioja-argentina,argentina,247.0,37.0,9.56756756756759,-29.4142786,-66.9258173,19,Actividades en La Rioja Argentina,2026-01-29
3140,13,Concordia,Argentina,concordia,argentina,,,,-31.397429,-58.017263,0,Actividades en Concordia,2026-01-29
3170,13,Gualeguaychú,Argentina,gualeguaychu,argentina,,,,-33.007942,-58.511404,0,Actividades en Gualeguaychú,2026-01-29
3209,13,Santa Fe,Argentina,santa-fe,argentina,,,,-31.622152,-60.696376,0,Actividades en Santa Fe,2026-01-29
3217,13,Mar del Plata,Argentina,mar-del-plata,argentina,189.0,15.0,9.866666666666667,-38.0174836,-57.7406184,4,Actividades en Mar del Plata,2026-01-29
3227,13,Formosa,Argentina,formosa,argentina,13.0,5.0,10.0,-26.183277,-58.167691,7,Actividades en Formosa,2026-01-29
3228,13,Trelew,Argentina,trelew,argentina,85.0,1.0,10.0,-43.263305,-65.3830899,4,Actividades en Trelew,2026-01-29
3229,13,San Rafael,Argentina,san-rafael,argentina,581.0,59.0,9.35593220338986,-34.6274731,-68.3952498,9,Actividades en San Rafael,2026-01-29
3647,13,Reconquista,Argentina,reconquista,argentina,0.0,0.0,,-29.1673637,-59.7005237,3,Actividades en Reconquista,2026-01-29
3721,13,Posadas,Argentina,posadas-argentina,argentina,172.0,26.0,9.0,-27.396305,-55.9595353,15,Actividades en Posadas,2026-01-29
3855,13,Potrerillos ,Argentina,potrerillos,argentina,266.0,14.0,10.0,-32.9513201,-69.2186151,9,Actividades en Potrerillos ,2026-01-29
3925,13,Comodoro Rivadavia,Argentina,comodoro-rivadavia,argentina,0.0,0.0,,-45.8370484,-67.6413477,4,Actividades en Comodoro Rivadavia,2026-01-29
3954,13,Cabra Corral,Argentina,cabra-corral,argentina,4.0,0.0,,-25.2709097,-65.3342169,4,Actividades en Cabra Corral,2026-01-29
3955,13,San Lorenzo,Argentina,san-lorenzo,argentina,36.0,2.0,10.0,-24.7386028,-65.5111542,5,Actividades en San Lorenzo,2026-01-29
4285,13,Villa Carlos Paz,Argentina,villa-carlos-paz,argentina,106.0,16.0,9.124999999875,-31.4121939,-64.5697769,9,Actividades en Villa Carlos Paz,2026-01-29
4307,13,Mina Clavero,Argentina,mina-clavero,argentina,,,,-31.7290295,-65.0287517,0,Actividades en Mina Clavero,2026-01-29
4369,13,Sierra de la Ventana,Argentina,sierra-de-la-ventana,argentina,1.0,0.0,,-38.1306484,-61.8129357,3,Actividades en Sierra de la Ventana,2026-01-29
4402,13,Maipú ,Argentina,maipu,argentina,,,,-32.9654036,-68.8549596,10,Actividades en Maipú ,2026-01-29
4627,13,Termas de Río Hondo,Argentina,termas-de-rio-hondo,argentina,166.0,23.0,8.347826086956491,-27.5002745,-64.9135849,9,Actividades en Termas de Río Hondo,2026-01-29
4651,13,Villa Unión,Argentina,villa-union,argentina,263.0,21.0,7.333333333333347,-29.3170667,-68.2361757,15,Actividades en Villa Unión,2026-01-29
4689,13,Resistencia ,Argentina,resistencia,argentina,3.0,1.0,8.0,-27.4548372,-58.8706111,5,Actividades en Resistencia ,2026-01-29
4811,13,Neuquén,Argentina,neuquen,argentina,156.0,17.0,7.882352941176471,-38.9410801,-68.1854412,9,Actividades en Neuquén,2026-01-29
4817,13,San Fernando,Argentina,san-fernando-argentina,argentina,62.0,3.0,10.0,-34.4505456,-58.5665993,6,Actividades en San Fernando,2026-01-29
4858,13,San Clemente Del Tuyú,Argentina,san-clemente-del-tuyu,argentina,,,,-36.3765546,-56.7346439,0,Actividades en San Clemente Del Tuyú,2026-01-29
4916,13,Campana,Argentina,campana,argentina,70.0,3.0,9.3333333333333,-34.2307879,-58.955989,3,Actividades en Campana,2026-01-29
4920,13,Vaqueros,Argentina,vaqueros,argentina,2.0,0.0,,-24.696677,-65.410268,3,Actividades en Vaqueros,2026-01-29
4929,13,Los Gigantes,Argentina,los-gigantes-argentina,argentina,9.0,0.0,,-31.3949398,-64.7802571,8,Actividades en Los Gigantes,2026-01-29
5086,13,Capilla del Señor,Argentina,capilla-del-senor,argentina,,,,-34.2867069,-59.1050836,3,Actividades en Capilla del Señor,2026-01-29
5131,13,Carlos Keen,Argentina,carlos-keen,argentina,2.0,0.0,,-34.4844881,-59.2192456,3,Actividades en Carlos Keen,2026-01-29
5151,13,Caviahue,Argentina,caviahue,argentina,1.0,0.0,,-37.8701729,-71.0585993,7,Actividades en Caviahue,2026-01-29
5289,13,Ituzaingó,Argentina,ituzaingo,argentina,9.0,0.0,,-27.5902517,-56.6918083,3,Actividades en Ituzaingó,2026-01-29
5422,13,Malargüe,Argentina,malargue,argentina,0.0,0.0,,-35.4785689,-69.6215298,3,Actividades en Malargüe,2026-01-29
5482,13,Rawson,Argentina,rawson,argentina,7.0,1.0,2.0,-43.2987841,-65.1237337,3,Actividades en Rawson,2026-01-29
5517,13,Yerba Buena,Argentina,yerba-buena,argentina,6.0,0.0,,-26.8133711,-65.3365579,7,Actividades en Yerba Buena,2026-01-29
5638,13,Juan José Castelli,Argentina,juan-jose-castelli,argentina,2.0,2.0,10.0,-25.945145106712303,-60.63092553501198,4,Actividades en Juan José Castelli,2026-01-29
5658,13,Colonia Suiza,Argentina,colonia-suiza,argentina,,,,-41.09546057695287,-71.50885886272245,0,Actividades en Colonia Suiza,2026-01-29
5698,13,Puerto Pirámides,Argentina,puerto-piramides,argentina,30.0,0.0,,-42.57181495640779,-64.28327823319188,5,Actividades en Puerto Pirámides,2026-01-29
5762,13,Tafí del Valle,Argentina,tafi-del-valle,argentina,4.0,1.0,10.0,-26.85028359351114,-65.69643513184917,4,Actividades en Tafí del Valle,2026-01-29
5796,13,Tandil,Argentina,tandil,argentina,0.0,0.0,,-37.32490787160082,-59.13514992717315,6,Actividades en Tandil,2026-01-29
5811,13,Dolavon,Argentina,dolavon,argentina,,,,-43.30699980815592,-65.70717763694921,0,Actividades en Dolavon,2026-01-29
5818,13,San Isidro,Argentina,san-isidro,argentina,0.0,0.0,,-34.47080800648241,-58.52895107774671,3,Actividades en San Isidro,2026-01-29
5820,13,Tolhuin,Argentina,tolhuin,argentina,,,,-54.5104026249339,-67.19390892789255,0,Actividades en Tolhuin,2026-01-29
5837,13,Colonia Carlos Pellegrini,Argentina,colonia-carlos-pellegrini,argentina,0.0,0.0,,-28.53444607160752,-57.171251095645054,3,Actividades en Colonia Carlos Pellegrini,2026-01-29
5845,13,Capilla del Monte,Argentina,capilla-del-monte,argentina,,,,-30.856884801994898,-64.53050288217591,0,Actividades en Capilla del Monte,2026-01-29
5847,13,Río Gallegos,Argentina,rio-gallegos,argentina,,,,-51.62293186974162,-69.22059415991076,0,Actividades en Río Gallegos,2026-01-29
5849,13,San Fernando del Valle de Catamarca,Argentina,san-fernando-del-valle-de-catamarca,argentina,,,,-28.468910338528318,-65.78211213542038,0,Actividades en San Fernando del Valle de Catamarca,2026-01-29
5857,13,Fiambala,Argentina,fiambala,argentina,,,,-27.689040565345508,-67.61710623526776,0,Actividades en Fiambala,2026-01-29
5858,13,Antofagasta de la Sierra,Argentina,antofagasta-de-la-sierra,argentina,,,,-26.05928271494875,-67.40653947554934,0,Actividades en Antofagasta de la Sierra,2026-01-29
5859,13,Belén,Argentina,belen-argentina,argentina,,,,-27.648498608421015,-67.02780809611097,0,Actividades en Belén,2026-01-29
2822,14,Ereván,Armenia,erevan,armenia,1281.0,79.0,8.987341772151895,40.1823795,44.5142781,13,Actividades en Ereván,2026-01-29
173,16,Sídney,Australia,sidney,australia,12761.0,776.0,9.097740549828202,-33.8524,151.210685,28,Actividades<strong> en Sídney</strong>,2026-01-29
356,16,Melbourne,Australia,melbourne,australia,5114.0,383.0,8.945169712793719,-37.971237,144.4926947,28,Actividades en Melbourne,2026-01-29
1154,16,Gold Coast,Australia,gold-coast,australia,158.0,8.0,9.5,-27.9533313,153.0891774,18,Actividades en Gold Coast,2026-01-29
1158,16,Launceston,Australia,launceston,australia,1.0,0.0,,-41.4345957,147.0664259,2,Actividades en Launceston,2026-01-29
1352,16,Airlie Beach,Australia,airlie-beach,australia,365.0,30.0,9.199999999999989,-20.2723351,148.7006087,9,Actividades en Airlie Beach,2026-01-29
1867,16,Brisbane,Australia,brisbane,australia,764.0,61.0,8.786885245901669,-27.4711377,153.0151048,16,Actividades en Brisbane,2026-01-29
2339,16,Perth,Australia,perth,australia,119.0,7.0,8.285714285714286,-32.0391738,115.6813552,18,Actividades en Perth,2026-01-29
2387,16,Noosa Heads,Australia,noosa-heads,australia,1.0,1.0,8.0,-26.2575226,152.7326974,9,Actividades en Noosa Heads,2026-01-29
2393,16,Rainbow Beach,Australia,rainbow-beach,australia,4.0,0.0,,-25.9055478,153.0403894,4,Actividades en Rainbow Beach,2026-01-29
2447,16,Adelaida,Australia,adelaida,australia,56.0,8.0,9.249999999999988,-35.0004451,138.3309783,15,Actividades en Adelaida,2026-01-29
2536,16,Cairns,Australia,cairns,australia,2253.0,158.0,8.075949367088587,-16.9301455,145.7681306,19,Actividades en Cairns,2026-01-29
2551,16,Darwin,Australia,darwin,australia,30.0,3.0,8.0,-26.0434432,123.5145926,10,Actividades en Darwin,2026-01-29
2557,16,Yulara,Australia,yulara,australia,223.0,10.0,6.99999999999999,-20.1655237,127.0814147,7,Actividades en Yulara,2026-01-29
2563,16,Port Douglas,Australia,port-douglas,australia,65.0,4.0,8.0,-16.4827734,145.4640741,10,Actividades en Port Douglas,2026-01-29
2605,16,Sunshine Coast,Australia,sunshine-coast,australia,0.0,0.0,,-26.6493079,153.0658024,3,Actividades en Sunshine Coast,2026-01-29
2681,16,Isla Phillip,Australia,isla-phillip,australia,23.0,1.0,6.0,-38.5071381,145.1001722,6,Actividades en Isla Phillip,2026-01-29
2687,16,Alice Springs,Australia,alice-springs,australia,5.0,1.0,10.0,-23.697839,133.882812,5,Actividades en Alice Springs,2026-01-29
3270,16,Byron Bay,Australia,byron-bay,australia,13.0,0.0,,-28.6468637,153.5678767,6,Actividades en Byron Bay,2026-01-29
3353,16,Hobart,Australia,hobart,australia,85.0,9.0,8.444444444444445,-42.8823389,147.3110468,12,Actividades en Hobart,2026-01-29
3656,16,Port Arthur,Australia,port-arthur,australia,8.0,0.0,,-43.1507393,147.7684614,3,Actividades en Port Arthur,2026-01-29
3684,16,Geelong,Australia,geelong,australia,0.0,0.0,,-38.1535164,144.3646,4,Actividades en Geelong,2026-01-29
3685,16,Isla de Lord Howe,Australia,isla-lord-howe,australia,0.0,0.0,,-31.5559461,159.0818838,4,Actividades en Isla de Lord Howe,2026-01-29
3688,16,Newcastle,Australia,newcastle,australia,0.0,0.0,,-32.9282553,151.7810886,5,Actividades en Newcastle,2026-01-29
4281,16,Tweed Heads,Australia,tweed-heads,australia,0.0,0.0,,-28.2536432,153.4548477,3,Actividades en Tweed Heads,2026-01-29
4767,16,Coles Bay,Australia,coles-bay,australia,0.0,0.0,,-42.1673603,148.215689,3,Actividades en Coles Bay,2026-01-29
4783,16,Mission Beach,Australia,mission-beach,australia,2.0,1.0,10.0,-17.8632558,146.1063238,3,Actividades en Mission Beach,2026-01-29
4925,16,Broome,Australia,broome,australia,0.0,0.0,,-17.9585296,122.2345535,3,Actividades en Broome,2026-01-29
4926,16,Isla de Rottnest,Australia,isla-de-rottnest,australia,10.0,0.0,,-32.0069994,115.5039892,2,Actividades en Isla de Rottnest,2026-01-29
5039,16,Huskisson,Australia,huskisson,australia,0.0,0.0,,-34.7614247,150.0670101,4,Actividades en Huskisson,2026-01-29
5069,16,Katoomba,Australia,katoomba,australia,4.0,0.0,,-33.703926,150.2954607,3,Actividades en Katoomba,2026-01-29
5138,16,Exmouth,Australia,exmouth,australia,2.0,1.0,10.0,-21.93221082,114.1248018,4,Actividades en Exmouth,2026-01-29
5152,16,Dunsborough,Australia,dunsborough,australia,0.0,0.0,,-33.6102719,115.0929084,3,Actividades en Dunsborough,2026-01-29
5326,16,Margaret River,Australia,margaret-river,australia,0.0,0.0,,-33.9666434,115.0529102,4,Actividades en Margaret River,2026-01-29
5501,16,Canberra,Australia,canberra,australia,6.0,2.0,9.0,-35.3135878,148.9649759,5,Actividades en Canberra,2026-01-29
5535,16,Isla Canguro,Australia,isla-canguro,australia,2.0,0.0,,-35.80816340228667,137.1560364572354,5,Actividades en Isla Canguro,2026-01-29
5767,16,Hervey Bay,Australia,hervey-bay,australia,0.0,0.0,,-25.288156268202936,152.76816298456242,2,Actividades en Hervey Bay,2026-01-29
29,17,Viena,Austria,viena,austria,621468.0,54097.0,8.326968470216658,48.208087,16.373835,77,Actividades<strong> en Viena</strong>,2026-01-29
277,17,Salzburgo,Austria,salzburgo,austria,12239.0,1045.0,8.607655502392348,47.798452,13.046451,19,Actividades<strong> en Salzburgo</strong>,2026-01-29
937,17,Innsbruck,Austria,innsbruck,austria,2220.0,139.0,9.035971223021589,47.2648926,11.4010833,12,Actividades en Innsbruck,2026-01-29
3686,17,Neustift im Stubaital,Austria,neustift-im-stubaital,austria,21.0,5.0,10.0,47.110114,11.306221,2,Actividades en Neustift im Stubaital,2026-01-29
3990,17,Klosterneuburg,Austria,klosterneuburg,austria,6.0,0.0,,48.2990037,16.2112203,3,Actividades en Klosterneuburg,2026-01-29
4722,17,Eisenstadt ,Austria,eisenstadt,austria,3.0,0.0,,47.8388337,16.4643354,3,Actividades en Eisenstadt ,2026-01-29
5728,17,Hall In Tirol,Austria,hall-in-tirol,austria,0.0,0.0,,47.28028470952238,11.506134415555126,2,Actividades en Hall In Tirol,2026-01-29
1498,18,Bakú,Azerbaiyán,baku,azerbaiyan,1343.0,134.0,8.029850746268647,40.3909169,49.8725702,17,Actividades en Bakú,2026-01-29
1828,19,Nasáu,Bahamas,nasau,bahamas,893.0,21.0,8.952380952380953,25.0784748,-77.3413307,9,Actividades en Nasáu,2026-01-29
2125,20,Manama,Baréin,manama,barein,621.0,30.0,5.3333333333333295,26.2240399,50.5817441,16,Actividades en Manama,2026-01-29
5533,21,Daca,Bangladés,daca,banglades,,,,23.7810672,90.2548733,0,Actividades en Daca,2026-01-29
5146,22,Bridgetown,Barbados,bridgetown,barbados,60.0,1.0,8.0,13.1013091,-59.5965933,4,Actividades en Bridgetown,2026-01-29
5205,22,Speightstown,Barbados,speightstown,barbados,0.0,0.0,,13.253318,-59.638896,2,Actividades en Speightstown,2026-01-29
28,24,Bruselas,Bélgica,bruselas,belgica,1433434.0,106953.0,9.222176345372867,50.850391,4.351702,59,Actividades<strong> en Bruselas</strong>,2026-01-29
51,24,Brujas,Bélgica,brujas,belgica,583352.0,35376.0,9.175639605005257,51.210862,3.225002,19,Actividades<strong> en Brujas</strong>,2026-01-29
58,24,Gante,Bélgica,gante,belgica,387216.0,22589.0,9.394142281641509,51.053643,3.730545,10,Actividades<strong> en Gante</strong>,2026-01-29
68,24,Amberes,Bélgica,amberes,belgica,127169.0,7371.0,8.550244652466894,51.219572,4.402385,13,Actividades<strong> en Amberes</strong>,2026-01-29
4279,24,Lovaina,Bélgica,lovaina,belgica,9105.0,690.0,8.554028985507246,50.884089,4.6353904,3,Actividades en Lovaina,2026-01-29
4280,24,Malinas,Bélgica,malinas,belgica,106.0,4.0,9.5,51.034834,4.3894757,3,Actividades en Malinas,2026-01-29
5466,24,Lieja,Bélgica,lieja,belgica,,,,50.6246813,5.5168777,0,Actividades en Lieja,2026-01-29
5545,24,Lichtaart,Bélgica,lichtaart,belgica,,,,51.22468304303879,4.919391851467736,2,Actividades en Lichtaart,2026-01-29
5554,24,Durbuy,Bélgica,durbuy,belgica,,,,50.35315942472016,5.456554537928071,0,Actividades en Durbuy,2026-01-29
5586,24,Beersel,Bélgica,beersel,belgica,34.0,2.0,10.0,50.76536954458609,4.307573462801201,2,Actividades en Beersel,2026-01-29
5645,24,Wavre,Bélgica,wavre,belgica,,,,50.71387116323761,4.611311716088029,3,Actividades en Wavre,2026-01-29
5653,24,Namur,Bélgica,namur,belgica,0.0,0.0,,50.46694427120752,4.865844618610197,2,Actividades en Namur,2026-01-29
5686,24,Ypres,Bélgica,ypres,belgica,0.0,0.0,,50.85261301497061,2.884794896405879,2,Actividades en Ypres,2026-01-29
5740,24,Bastoña,Bélgica,bastona,belgica,11.0,0.0,,50.00115824421061,5.715268011679001,2,Actividades en Bastoña,2026-01-29
2275,25,Ciudad de Belice,Belice,ciudad-de-belice,belice,19.0,1.0,2.0,17.5055793,-88.2468956,2,Actividades en Ciudad de Belice,2026-01-29
2281,25,San Ignacio,Belice,san-ignacio,belice,5.0,0.0,,17.14835,-89.108747,6,Actividades en San Ignacio,2026-01-29
5474,25,Water Bank,Belice,water-bank,belice,,,,17.7587385,-88.6704867,0,Actividades en Water Bank,2026-01-29
387,29,La Paz,Bolivia,la-paz-bolivia,bolivia,2154.0,254.0,8.566929133858268,-16.497385765329362,-68.12903165817262,39,Actividades en La Paz,2026-01-29
925,29,Uyuni,Bolivia,uyuni,bolivia,745.0,71.0,8.056338028112663,-20.4613752,-66.8277485,12,Actividades en Uyuni,2026-01-29
961,29,Potosí,Bolivia,potosi,bolivia,1956.0,187.0,8.941176470588243,-19.580409,-65.758607,24,Actividades en Potosí,2026-01-29
964,29,Sucre,Bolivia,sucre,bolivia,111.0,12.0,9.0,-19.021302,-65.257235,16,Actividades en Sucre,2026-01-29
970,29,Rurrenabaque,Bolivia,rurrenabaque,bolivia,60.0,3.0,6.666666666666667,-14.439458,-67.525969,5,Actividades en Rurrenabaque,2026-01-29
2062,29,Cochabamba,Bolivia,cochabamba,bolivia,118.0,17.0,9.294117647058815,-17.3888389,-66.155673,18,Actividades en Cochabamba,2026-01-29
3024,29,Santa Cruz de la Sierra,Bolivia,santa-cruz-de-la-sierra,bolivia,151.0,4.0,8.0,-17.7574439,-63.2918286,19,Actividades en Santa Cruz de la Sierra,2026-01-29
3073,29,Tupiza,Bolivia,tupiza,bolivia,,,,-21.4433719,-65.7538612,0,Actividades en Tupiza,2026-01-29
3199,29,Tarija,Bolivia,tarija,bolivia,34.0,1.0,10.0,-21.535467,-64.732141,14,Actividades en Tarija,2026-01-29
3821,29,Trinidad,Bolivia,trinidad-bolivia,bolivia,14.0,0.0,,-14.8299817,-64.9369522,14,Actividades en Trinidad,2026-01-29
4027,29,Oruro,Bolivia,oruro,bolivia,14.0,1.0,2.0,-17.9612401,-67.1574953,7,Actividades en Oruro,2026-01-29
4104,29,Cobija,Bolivia,cobija,bolivia,0.0,0.0,,-11.0345971,-68.8123572,2,Actividades en Cobija,2026-01-29
371,30,Sarajevo,Bosnia y Herzegovina,sarajevo,bosnia-herzegovina,12998.0,1086.0,9.828790669122183,43.8936377,18.2429079,18,Actividades en Sarajevo,2026-01-29
2506,30,Mostar,Bosnia y Herzegovina,mostar,bosnia-herzegovina,8538.0,385.0,9.292502164502196,43.348913,17.812815,5,Actividades en Mostar,2026-01-29
108,33,Río de Janeiro,Brasil,rio-de-janeiro,brasil,240324.0,11204.0,8.81492205164786,-22.908642,-43.172311,160,Actividades<strong> en Río de Janeiro</strong>,2026-01-29
298,33,Natal,Brasil,natal,brasil,899.0,51.0,9.058823529411764,-5.6836628,-35.4353093,20,Actividades<strong> en Natal</strong>,2026-01-29
328,33,Sao Paulo,Brasil,sao-paulo,brasil,8642.0,941.0,9.497137796670218,-23.5796223,-46.6523232,77,Actividades en Sao Paulo,2026-01-29
331,33,Fortaleza,Brasil,fortaleza,brasil,995.0,108.0,8.370370370370368,-3.7902979,-38.6585425,27,Actividades en Fortaleza,2026-01-29
357,33,Salvador de Bahía,Brasil,salvador-bahia,brasil,36595.0,355.0,8.27042253521127,-12.9012522,-38.5598919,45,Actividades en Salvador de Bahía,2026-01-29
362,33,Foz de Iguazú,Brasil,foz-iguazu,brasil,18399.0,1020.0,8.666666666666657,-25.5171112,-54.6170033,44,Actividades en Foz de Iguazú,2026-01-29
367,33,Manaos,Brasil,manaos,brasil,1131.0,117.0,8.102564102495744,-3.130433,-60.022577,22,Actividades en Manaos,2026-01-29
388,33,Florianópolis,Brasil,florianopolis,brasil,7786.0,311.0,8.591639871382657,-27.6161046,-48.622759,42,Actividades en Florianópolis,2026-01-29
457,33,Recife,Brasil,recife,brasil,999.0,72.0,8.111111111111082,-8.0421584,-35.008676,19,Actividades en Recife,2026-01-29
484,33,Pipa,Brasil,pipa,brasil,54.0,3.0,8.0,-6.2281571,-35.0501107,6,Actividades en Pipa,2026-01-29
520,33,Praia do Forte,Brasil,praia-forte,brasil,17.0,1.0,8.0,-12.5769875,-38.0260578,4,Actividades en Praia do Forte,2026-01-29
553,33,Maragogi,Brasil,maragogi,brasil,412.0,21.0,8.76190476180952,-8.9662157,-35.3957135,11,Actividades en Maragogi,2026-01-29
714,33,Brasilia,Brasil,brasilia,brasil,1140.0,146.0,8.150684931506863,-15.798565,-47.875034,14,Actividades en Brasilia,2026-01-29
982,33,Balneario Camboriú,Brasil,balneario-camboriu,brasil,1676.0,54.0,8.555555555555557,-26.993738,-48.627894,21,Actividades en Balneario Camboriú,2026-01-29
985,33,Búzios,Brasil,buzios,brasil,8879.0,320.0,8.637500000000012,-22.755018,-41.886015,23,Actividades en Búzios,2026-01-29
1009,33,Paraty,Brasil,paraty,brasil,3364.0,154.0,8.75324675324673,-23.21947,-44.715419,23,Actividades en Paraty,2026-01-29
1012,33,Angra dos Reis,Brasil,angra-reis,brasil,520.0,26.0,8.230769230769235,-23.008291,-44.31611,20,Actividades en Angra dos Reis,2026-01-29
2527,33,Santos,Brasil,santos,brasil,128.0,7.0,10.0,-23.9645222,-46.313077,13,Actividades en Santos,2026-01-29
2548,33,Jericoacoara,Brasil,jericoacoara,brasil,490.0,35.0,8.571428571428568,-2.7954882,-40.5146028,15,Actividades en Jericoacoara,2026-01-29
2876,33,Palmas,Brasil,palmas,brasil,5.0,0.0,,-10.2806153,-48.4984371,9,Actividades en Palmas,2026-01-29
2909,33,Morro de Sao Paulo,Brasil,morro-de-sao-paulo,brasil,259.0,24.0,8.583333333333341,-13.3925964,-38.9325371,12,Actividades en Morro de Sao Paulo,2026-01-29
3020,33,Barreirinhas,Brasil,barreirinhas,brasil,338.0,22.0,9.363636363636369,-2.8427432,-43.2607249,24,Actividades en Barreirinhas,2026-01-29
3021,33,Maceió,Brasil,maceio,brasil,686.0,23.0,8.086956521565222,-9.5942081,-35.8267673,23,Actividades en Maceió,2026-01-29
3026,33,Alter do Chão,Brasil,alter-do-chao,brasil,15.0,0.0,,-2.5095838,-54.9621192,13,Actividades en Alter do Chão,2026-01-29
3065,33,Lençóis,Brasil,lencois,brasil,25.0,1.0,10.0,-12.5623431,-41.3911463,9,Actividades en Lençóis,2026-01-29
3522,33,Arraial d'Ajuda,Brasil,arraial-d-ajuda,brasil,11.0,1.0,2.0,-16.489442,-39.072901,8,Actividades en Arraial d'Ajuda,2026-01-29
3525,33,Porto Seguro,Brasil,porto-seguro,brasil,541.0,30.0,7.333333333333333,-16.446064,-39.061443,28,Actividades en Porto Seguro,2026-01-29
3668,33,Porto Belo,Brasil,porto-belo,brasil,,,,-27.153937,-48.572434,0,Actividades en Porto Belo,2026-01-29
3669,33,Bombinhas,Brasil,bombinhas,brasil,232.0,5.0,7.6,-27.148909,-48.489925,9,Actividades en Bombinhas,2026-01-29
3670,33,Governador Celso Ramos,Brasil,governador-celso-ramos,brasil,,,,-27.314689,-48.555175,0,Actividades en Governador Celso Ramos,2026-01-29
3745,33,Porto de Galinhas,Brasil,porto-de-galinhas,brasil,999.0,50.0,7.840000000000008,-8.4933763,-35.0098749,21,Actividades en Porto de Galinhas,2026-01-29
3746,33,João Pessoa,Brasil,joao-pessoa,brasil,118.0,14.0,5.714285714285714,-7.1466036,-34.9516381,34,Actividades en João Pessoa,2026-01-29
3747,33,Fernando de Noronha,Brasil,fernando-de-noronha,brasil,153.0,7.0,8.857142857142858,-3.855,-32.425,24,Actividades en Fernando de Noronha,2026-01-29
3953,33,Ilhabela,Brasil,ilhabela,brasil,71.0,8.0,8.75,-23.8024571,-45.4034329,9,Actividades en Ilhabela,2026-01-29
4196,33,Penha,Brasil,penha,brasil,456.0,11.0,8.5454545454545,-26.774717,-48.637441,7,Actividades en Penha,2026-01-29
4197,33,Blumenau,Brasil,blumenau,brasil,,,,-26.913117,-49.086316,0,Actividades en Blumenau,2026-01-29
4198,33,Joinville,Brasil,joinville,brasil,0.0,0.0,,-26.301111,-48.84109,6,Actividades en Joinville,2026-01-29
4205,33,Pomerode,Brasil,pomerode,brasil,0.0,0.0,,-26.744155,-49.174502,3,Actividades en Pomerode,2026-01-29
4309,33,Barra do Turvo,Brasil,barra-do-turvo,brasil,0.0,0.0,,-24.7555337,-48.5117631,5,Actividades en Barra do Turvo,2026-01-29
4310,33,Belo Horizonte,Brasil,belo-horizonte,brasil,366.0,42.0,8.666666666666694,-19.9026615,-44.1041363,22,Actividades en Belo Horizonte,2026-01-29
4419,33,Campos do Jordão,Brasil,campos-do-jordao,brasil,93.0,10.0,8.0,-22.7330059,-45.6211501,9,Actividades en Campos do Jordão,2026-01-29
4436,33,Ilha Grande,Brasil,ilha-grande,brasil,706.0,24.0,8.249999999999995,-23.1552519,-44.3747964,14,Actividades en Ilha Grande,2026-01-29
4437,33,Santo Amaro da Imperatriz,Brasil,santo-amaro-da-imperatriz,brasil,,,,-27.688886,-48.8274231,0,Actividades en Santo Amaro da Imperatriz,2026-01-29
4438,33,Três Coroas,Brasil,tres-coroas,brasil,42.0,3.0,10.0,-29.4997484,-50.8137412,8,Actividades en Três Coroas,2026-01-29
4439,33,Gramado,Brasil,gramado,brasil,880.0,54.0,8.000000000000005,-29.3797216,-50.9014878,37,Actividades en Gramado,2026-01-29
4440,33,Canela,Brasil,canela,brasil,363.0,13.0,9.23076923076923,-29.3477101,-50.8743887,27,Actividades en Canela,2026-01-29
4441,33,Itacarambi,Brasil,itacarambi,brasil,,,,-15.0955863,-44.1065671,0,Actividades en Itacarambi,2026-01-29
4444,33,Porto Alegre,Brasil,porto-alegre,brasil,229.0,22.0,9.181818181818182,-30.1087957,-51.3172272,8,Actividades en Porto Alegre,2026-01-29
4452,33,Nova Petrópolis,Brasil,nova-petropolis,brasil,0.0,0.0,,-29.372062,-51.2308645,4,Actividades en Nova Petrópolis,2026-01-29
4453,33,Bento Gonçalves,Brasil,bento-goncalves,brasil,17.0,0.0,,-29.1500345,-51.5527304,20,Actividades en Bento Gonçalves,2026-01-29
4494,33,Curitiba ,Brasil,curitiba,brasil,288.0,20.0,9.1,-25.4950501,-49.4298839,25,Actividades en Curitiba ,2026-01-29
4523,33,Aracaju,Brasil,aracaju,brasil,31.0,3.0,6.666666666666667,-11.0059758,-37.2432428,24,Actividades en Aracaju,2026-01-29
4538,33,Monte Verde,Brasil,monte-verde,brasil,6.0,0.0,,-22.8671236,-46.0495211,9,Actividades en Monte Verde,2026-01-29
4539,33,São Francisco de Paula,Brasil,sao-francisco-de-paula,brasil,0.0,0.0,,-29.1650632,-51.0516404,4,Actividades en São Francisco de Paula,2026-01-29
4543,33,Pelotas,Brasil,pelotas,brasil,0.0,0.0,,-31.6243015,-52.4726446,3,Actividades en Pelotas,2026-01-29
4544,33,Maracajaú ,Brasil,maracajau,brasil,81.0,3.0,9.3333333333333,-5.4127947,-35.3203896,4,Actividades en Maracajaú ,2026-01-29
4577,33,Arraial do Cabo,Brasil,arraial-do-cabo,brasil,849.0,61.0,8.032786885213111,-22.9646732,-42.0473204,15,Actividades en Arraial do Cabo,2026-01-29
4583,33,Cabo Frío,Brasil,cabo-frio,brasil,221.0,26.0,7.615384615384631,-22.7365673,-42.175793,11,Actividades en Cabo Frío,2026-01-29
4584,33,Urubici ,Brasil,urubici,brasil,0.0,0.0,,-28.004647,-49.6023925,3,Actividades en Urubici ,2026-01-29
4585,33,São Joaquim,Brasil,sao-joaquim,brasil,0.0,0.0,,-28.2879845,-49.9720148,8,Actividades en São Joaquim,2026-01-29
4586,33,Bom Jardim da Serra,Brasil,bom-jardim-da-serra,brasil,0.0,0.0,,-28.3735137,-49.9332898,3,Actividades en Bom Jardim da Serra,2026-01-29
4587,33,Imbituba,Brasil,imbituba,brasil,0.0,0.0,,-28.2230501,-48.8284318,12,Actividades en Imbituba,2026-01-29
4588,33,Garopaba ,Brasil,garopaba,brasil,0.0,0.0,,-28.0468847,-48.6759123,7,Actividades en Garopaba ,2026-01-29
4589,33,Laguna,Brasil,laguna,brasil,2.0,0.0,,-28.4702131,-48.9657714,3,Actividades en Laguna,2026-01-29
4590,33,Bonito,Brasil,bonito,brasil,162.0,2.0,9.0,-21.12391941,-56.5083537,36,Actividades en Bonito,2026-01-29
4591,33,Ilhéus,Brasil,ilheus,brasil,32.0,2.0,8.0,-14.7924497,-39.0906407,7,Actividades en Ilhéus,2026-01-29
4599,33,Petrópolis ,Brasil,petropolis,brasil,0.0,0.0,,-22.4838531,-43.3230431,3,Actividades en Petrópolis ,2026-01-29
4602,33,São Sebastião,Brasil,sao-sebastiao,brasil,0.0,0.0,,-23.7761742,-45.9007422,6,Actividades en São Sebastião,2026-01-29
4654,33,Caxias do Sul,Brasil,caxias-do-sul,brasil,14.0,3.0,10.0,-29.165436,-51.3138381,43,Actividades en Caxias do Sul,2026-01-29
4672,33,Ouro Preto,Brasil,ouro-preto,brasil,72.0,8.0,9.0,-20.3912838,-43.5366652,18,Actividades en Ouro Preto,2026-01-29
4674,33,São Roque de Minas,Brasil,sao-roque-de-minas,brasil,,,,-20.1794754,-47.0639256,0,Actividades en São Roque de Minas,2026-01-29
4745,33,Praia Grande,Brasil,praia-grande,brasil,16.0,1.0,10.0,-29.2116519,-49.997695,16,Actividades en Praia Grande,2026-01-29
4754,33,Cavalcante,Brasil,cavalcante,brasil,0.0,0.0,,-13.7939656,-47.4530258,6,Actividades en Cavalcante,2026-01-29
4755,33,Campina Grande,Brasil,campina-grande,brasil,0.0,0.0,,-7.2428376,-35.9015644,3,Actividades en Campina Grande,2026-01-29
4774,33,Botucatu,Brasil,botucatu,brasil,0.0,0.0,,-22.838154,-48.5456391,3,Actividades en Botucatu,2026-01-29
4775,33,Teutônia ,Brasil,teutonia,brasil,0.0,0.0,,-29.4658831,-51.7708168,3,Actividades en Teutônia ,2026-01-29
4782,33,Holambra ,Brasil,holambra,brasil,7.0,1.0,10.0,-22.6297856,-47.0532377,10,Actividades en Holambra ,2026-01-29
4815,33,Alto Paraíso de Goiás,Brasil,alto-paraiso-de-goias,brasil,0.0,0.0,,-14.1375039,-47.516804,9,Actividades en Alto Paraíso de Goiás,2026-01-29
4816,33,Japaratinga ,Brasil,japaratinga,brasil,8.0,0.0,,-9.0895596,-35.2582104,3,Actividades en Japaratinga ,2026-01-29
4834,33,Belén,Brasil,belen,brasil,29.0,6.0,6.333333333333333,-1.3413479,-48.5904692,12,Actividades en Belén,2026-01-29
4835,33,Vitória,Brasil,vitoria-brasil,brasil,50.0,14.0,7.857142856999999,-20.2821881,-40.3207233,13,Actividades en Vitória,2026-01-29
4836,33,Vila Velha,Brasil,vila-velha,brasil,,,,-20.4277336,-40.4368841,8,Actividades en Vila Velha,2026-01-29
4837,33,Navegantes,Brasil,navegantes,brasil,20.0,0.0,,-26.8668398,-48.7118397,6,Actividades en Navegantes,2026-01-29
4838,33,Cuiabá,Brasil,cuiaba,brasil,41.0,3.0,10.0,-15.419701,-56.1746049,4,Actividades en Cuiabá,2026-01-29
4849,33,Campo Grande,Brasil,campo-grande,brasil,8.0,1.0,10.0,-20.4810998,-54.635534,4,Actividades en Campo Grande,2026-01-29
4850,33,Teresina ,Brasil,teresina,brasil,1.0,0.0,,-5.1864402,-42.7848195,17,Actividades en Teresina ,2026-01-29
4851,33,Ubatuba ,Brasil,ubatuba,brasil,16.0,0.0,,-23.3976178,-45.0021537,15,Actividades en Ubatuba ,2026-01-29
4867,33,Río Branco,Brasil,rio-branco,brasil,0.0,0.0,,-9.953022,-67.8454285,5,Actividades en Río Branco,2026-01-29
4877,33,Boa Vista,Brasil,boa-vista,brasil,4.0,1.0,10.0,2.807199,-60.6965615,6,Actividades en Boa Vista,2026-01-29
4901,33,Cambará do Sul ,Brasil,cambara-do-sul,brasil,0.0,0.0,,-29.0578269,-50.1433018,16,Actividades en Cambará do Sul ,2026-01-29
4918,33,Bertioga,Brasil,bertioga,brasil,0.0,0.0,,-23.7662085,-46.0183424,6,Actividades en Bertioga,2026-01-29
4961,33,São Luís,Brasil,sao-luis,brasil,319.0,8.0,8.5,-2.5606322,-44.258122,12,Actividades en São Luís,2026-01-29
4963,33,Tramandaí ,Brasil,tramandai,brasil,0.0,0.0,,-30.0287391,-50.157993,3,Actividades en Tramandaí ,2026-01-29
4970,33,Caraíva,Brasil,caraiva,brasil,,,,-16.8080341,-39.1668703,4,Actividades en Caraíva,2026-01-29
4971,33,Santa Cruz Cabrália,Brasil,santa-cruz-cabralia,brasil,,,,-16.2818789,-39.0487475,4,Actividades en Santa Cruz Cabrália,2026-01-29
4976,33,Mampituba,Brasil,mampituba,brasil,4.0,1.0,10.0,-29.21173,-49.9447418,9,Actividades en Mampituba,2026-01-29
5011,33,Cascavel,Brasil,cascavel,brasil,0.0,0.0,,-24.9637707,-53.4723517,4,Actividades en Cascavel,2026-01-29
5036,33,Três Cachoeiras,Brasil,tres-cachoeiras,brasil,,,,-29.4871584,-49.9564925,0,Actividades en Três Cachoeiras,2026-01-29
5037,33,Imbé,Brasil,imbe,brasil,0.0,0.0,,-29.9355602,-50.1151602,6,Actividades en Imbé,2026-01-29
5065,33,Três Forquilhas,Brasil,tres-forquilhas,brasil,0.0,0.0,,-29.4450361,-50.0925269,3,Actividades en Três Forquilhas,2026-01-29
5110,33,Andradina,Brasil,andradina,brasil,0.0,0.0,,-20.8658833,-51.3079017,3,Actividades en Andradina,2026-01-29
5119,33,Atibaia,Brasil,atibaia,brasil,0.0,0.0,,-23.1230567,-46.5588218,6,Actividades en Atibaia,2026-01-29
5127,33,Ivoti,Brasil,ivoti,brasil,,,,-29.6046107,-51.1641402,0,Actividades en Ivoti,2026-01-29
5163,33,Sirinhaém,Brasil,sirinhaem,brasil,,,,-8.5940803,-35.1120365,3,Actividades en Sirinhaém,2026-01-29
5166,33,Cajueiro da Praia,Brasil,cajueiro-da-praia,brasil,,,,-2.9336907,-41.3376109,0,Actividades en Cajueiro da Praia,2026-01-29
5168,33,Tutóia,Brasil,tutoia,brasil,,,,-2.7604507,-42.2750681,0,Actividades en Tutóia,2026-01-29
5169,33,Trairi,Brasil,trairi,brasil,,,,-3.3767639,-39.3434404,0,Actividades en Trairi,2026-01-29
5170,33,Amontada ,Brasil,amontada,brasil,,,,-3.230464,-39.7891145,0,Actividades en Amontada ,2026-01-29
5192,33,Santo Amaro do Maranhão,Brasil,santo-amaro-do-maranhao,brasil,7.0,0.0,,-2.5042509,-43.2581841,10,Actividades en Santo Amaro do Maranhão,2026-01-29
5195,33,Niterói,Brasil,niteroi,brasil,15.0,3.0,10.0,-22.9224933,-43.2011973,4,Actividades en Niterói,2026-01-29
5207,33,Boituva,Brasil,boituva,brasil,0.0,0.0,,-23.289146,-47.6746296,3,Actividades en Boituva,2026-01-29
5214,33,Chapada dos Guimarães,Brasil,chapada-dos-guimaraes,brasil,19.0,2.0,6.0,-15.4613018,-55.7446438,7,Actividades en Chapada dos Guimarães,2026-01-29
5220,33,Pirenópolis,Brasil,pirenopolis,brasil,0.0,0.0,,-15.8535612,-48.9612299,14,Actividades en Pirenópolis,2026-01-29
5226,33,Atins,Brasil,atins,brasil,3.0,0.0,,-2.5700818,-42.7422633,7,Actividades en Atins,2026-01-29
5255,33,Monte Belo do Sul,Brasil,monte-belo-do-sul,brasil,0.0,0.0,,-29.159809,-51.631734,3,Actividades en Monte Belo do Sul,2026-01-29
5277,33,Isla de Boipeba,Brasil,isla-de-boipeba,brasil,11.0,0.0,,-13.6227521,-38.9447886,7,Actividades en Isla de Boipeba,2026-01-29
5287,33,Goiânia,Brasil,goiania,brasil,4.0,2.0,10.0,-16.6905616,-49.2704937,10,Actividades en Goiânia,2026-01-29
5302,33,Parnaíba,Brasil,parnaiba,brasil,0.0,0.0,,-2.9304884,-41.7306631,9,Actividades en Parnaíba,2026-01-29
5391,33,Conceição de Jacareí,Brasil,conceicao-de-jacarei,brasil,16.0,0.0,,-23.0019168,-44.1211374,4,Actividades en Conceição de Jacareí,2026-01-29
5458,33,Balneário Piçarras,Brasil,balneario-picarras,brasil,4.0,0.0,,-26.7713173,-48.6911684,3,Actividades en Balneário Piçarras,2026-01-29
5468,33,Mangaratiba,Brasil,mangaratiba,brasil,0.0,0.0,,-22.9718723,-44.192345,3,Actividades en Mangaratiba,2026-01-29
5534,33,Sant'Ana do Livramento,Brasil,sant-ana-do-livramento,brasil,36.0,4.0,8.5,-30.88946903956787,-55.53159640304896,3,Actividades en Sant'Ana do Livramento,2026-01-29
5553,33,São Vicente,Brasil,sao-vicente-brasil,brasil,0.0,0.0,,-23.95864783409725,-46.38589112739803,3,Actividades en São Vicente,2026-01-29
5611,33,Itacaré,Brasil,itacare,brasil,10.0,0.0,,-14.2821017,-38.9958206,8,Actividades en Itacaré,2026-01-29
5705,33,Aquiraz,Brasil,aquiraz,brasil,,,,-3.9062336330989145,-38.37830151914998,0,Actividades en Aquiraz,2026-01-29
5707,33,Rio Quente,Brasil,rio-quente,brasil,,,,-17.809460979759265,-48.76308387459873,0,Actividades en Rio Quente,2026-01-29
5713,33,Garibaldi,Brasil,garibaldi,brasil,0.0,0.0,,-29.257331970553647,-51.52436397169497,3,Actividades en Garibaldi,2026-01-29
5737,33,Vinhedo,Brasil,vinhedo,brasil,2.0,0.0,,-23.0262890108276,-46.9814202740288,3,Actividades en Vinhedo,2026-01-29
5738,33,Bituruna,Brasil,bituruna,brasil,0.0,0.0,,-26.156811132177772,-51.55462457372875,3,Actividades en Bituruna,2026-01-29
5769,33,Porto Velho,Brasil,porto-velho,brasil,0.0,0.0,,-8.764008399526901,-63.89765137141532,3,Actividades en Porto Velho,2026-01-29
5805,33,São Miguel dos Milagres,Brasil,sao-miguel-dos-milagres,brasil,0.0,0.0,,-9.26583,-35.3728,3,Actividades en São Miguel dos Milagres,2026-01-29
5806,33,Tamandaré,Brasil,tamandare,brasil,0.0,0.0,,-8.74845,-35.1039,3,Actividades en Tamandaré,2026-01-29
5822,33,Mangue Seco,Brasil,mangue-seco,brasil,,,,-11.4646600314461,-37.36582924380539,0,Actividades en Mangue Seco,2026-01-29
5823,33,Baixio,Brasil,baixio,brasil,,,,-12.103187362364658,-37.69120073772078,0,Actividades en Baixio,2026-01-29
5824,33,Imbassaí,Brasil,imbassai,brasil,,,,-12.491336350389766,-37.96331210028892,4,Actividades en Imbassaí,2026-01-29
5825,33,Guarajuba,Brasil,guarajuba,brasil,,,,-12.65001840256548,-38.07103577024495,4,Actividades en Guarajuba,2026-01-29
5826,33,Costa do Sauípe,Brasil,costa-do-sauipe,brasil,,,,-12.43764313524878,-37.92445264283819,4,Actividades en Costa do Sauípe,2026-01-29
5832,33,São Roque,Brasil,sao-roque,brasil,0.0,0.0,,-23.5308,-47.1355,3,Actividades en São Roque,2026-01-29
5833,33,Presidente Figueiredo,Brasil,presidente-figueiredo,brasil,,,,-2.0524082606917773,-60.020429302698616,0,Actividades en Presidente Figueiredo,2026-01-29
5840,33,Cabo Santo Agostinho,Brasil,cabo-santo-agostinho,brasil,,,,-8.29483045511779,-35.03750545031796,0,Actividades en Cabo Santo Agostinho,2026-01-29
5853,33,Teresópolis,Brasil,teresopolis,brasil,,,,-22.41640765808112,-42.97100239398759,3,Actividades en Teresópolis,2026-01-29
5854,33,Piranhas,Brasil,piranhas,brasil,,,,-9.608977416343617,-37.762308365026854,0,Actividades en Piranhas,2026-01-29
5855,33,Delmiro Gouveia,Brasil,delmiro-gouveia,brasil,,,,-9.380600157334465,-38.00259699990592,0,Actividades en Delmiro Gouveia,2026-01-29
340,35,Sofía,Bulgaria,sofia,bulgaria,123217.0,11181.0,9.130443907818943,42.6388078,23.1838644,22,Actividades en Sofía,2026-01-29
574,35,Varna,Bulgaria,varna,bulgaria,23.0,1.0,10.0,43.2047556,27.8028249,2,Actividades en Varna,2026-01-29
577,35,Nesebar,Bulgaria,nesebar,bulgaria,15.0,1.0,10.0,42.658345,27.7016065,2,Actividades en Nesebar,2026-01-29
580,35,Balchik,Bulgaria,balchik,bulgaria,19.0,2.0,7.0,43.4117002,28.1571362,2,Actividades en Balchik,2026-01-29
4358,35,Plovdiv ,Bulgaria,plovdiv,bulgaria,253.0,25.0,9.12000000000002,42.14308135,24.75460515,3,Actividades en Plovdiv ,2026-01-29
4821,35,Borovets,Bulgaria,borovets,bulgaria,2.0,0.0,,42.2724894,23.606183,2,Actividades en Borovets,2026-01-29
2305,38,Praia,Cabo Verde,praia,cabo-verde,586.0,76.0,8.97368421052633,14.9364449,-23.5417491,16,Actividades en Praia,2026-01-29
2363,38,Santa María,Cabo Verde,santa-maria,cabo-verde,20043.0,2180.0,9.082807339449538,16.597448,-22.907664,20,Actividades en Santa María,2026-01-29
3863,38,Ribeira Grande,Cabo Verde,ribeira-grande,cabo-verde,123.0,15.0,8.39999999999996,17.1811593,-25.0732685,6,Actividades en Ribeira Grande,2026-01-29
3958,38,Sal Rei,Cabo Verde,sal-rei,cabo-verde,448.0,49.0,9.38775510204083,16.1812513,-22.9249639,9,Actividades en Sal Rei,2026-01-29
4009,38,Mindelo,Cabo Verde,mindelo,cabo-verde,340.0,20.0,9.39999999999997,16.8849594,-24.98623679,7,Actividades en Mindelo,2026-01-29
5129,38,Espargos,Cabo Verde,espargos,cabo-verde,,,,16.7575211,-22.9412555,8,Actividades en Espargos,2026-01-29
5154,38,Pedra de Lume,Cabo Verde,pedra-de-lume,cabo-verde,,,,16.7618,-22.8943061,8,Actividades en Pedra de Lume,2026-01-29
5155,38,Murdeira,Cabo Verde,murdeira,cabo-verde,,,,16.6786629,-22.9355907,7,Actividades en Murdeira,2026-01-29
5504,38,São Filipe,Cabo Verde,sao-filipe,cabo-verde,4.0,0.0,,14.8932682,-24.4991744,4,Actividades en São Filipe,2026-01-29
5573,38,Curral Velho,Cabo Verde,curral-velho,cabo-verde,,,,15.989607966280316,-22.79277364786717,2,Actividades en Curral Velho,2026-01-29
5574,38,Derrubado,Cabo Verde,derrubado,cabo-verde,,,,16.22339976650043,-22.793659428625524,2,Actividades en Derrubado,2026-01-29
5715,38,Nova Sintra,Cabo Verde,nova-sintra,cabo-verde,0.0,0.0,,14.871433350267893,-24.696302743161713,2,Actividades en Nova Sintra,2026-01-29
199,40,Siem Reap,Camboya,siem-reap,camboya,8239.0,827.0,9.201934703748474,13.365839,103.85172,25,Actividades<strong> en Siem Reap</strong>,2026-01-29
325,40,Nom Pen,Camboya,nom-pen,camboya,226.0,20.0,8.700000000000014,11.5794188,104.601135,17,Actividades en Nom Pen,2026-01-29
2873,40,Battambang,Camboya,battambang,camboya,31.0,8.0,9.750000000000025,13.0956794,103.1909302,4,Actividades en Battambang,2026-01-29
3290,40,Sihanoukville,Camboya,sihanoukville,camboya,,,,10.6616409,103.1067792,2,Actividades en Sihanoukville,2026-01-29
3291,40,Koh Rong,Camboya,koh-rong,camboya,,,,10.715584,103.1782696,2,Actividades en Koh Rong,2026-01-29
3992,41,Duala,Camerún,duala,camerun,2.0,0.0,,4.0359007,9.671764,4,Actividades en Duala,2026-01-29
4327,41,Yaundé,Camerún,yaunde,camerun,2.0,1.0,2.0,3.8677482,11.5188219,2,Actividades en Yaundé,2026-01-29
297,42,Vancouver,Canadá,vancouver,canada,17375.0,1285.0,9.030588845654998,49.279247,-123.12273,30,Actividades<strong> en Vancouver</strong>,2026-01-29
324,42,Toronto,Canadá,toronto,canada,22799.0,1607.0,8.687678904791545,43.645617,-79.380897,26,Actividades en Toronto,2026-01-29
329,42,Victoria,Canadá,victoria,canada,1140.0,50.0,8.199999999960033,48.4262871,-123.3942418,14,Actividades en Victoria,2026-01-29
344,42,Montreal,Canadá,montreal,canada,8470.0,506.0,8.881422924885351,45.498861,-73.569673,20,Actividades en Montreal,2026-01-29
544,42,Niagara-on-the-Lake,Canadá,niagara-on-the-lake,canada,47.0,0.0,,43.2957994,-79.2979755,3,Actividades en Niagara-on-the-Lake,2026-01-29
1087,42,Calgary,Canadá,calgary,canada,1291.0,75.0,9.12,50.611327,-118.5520651,10,Actividades en Calgary,2026-01-29
1105,42,Whitehorse,Canadá,whitehorse,canada,558.0,13.0,8.92307692276923,60.6994622,-135.3647496,13,Actividades en Whitehorse,2026-01-29
1270,42,Cataratas del Niágara,Canadá,cataratas-niagara-canada,canada,619.0,27.0,8.22222222222223,43.0885935,-79.087421,6,"Actividades en Cataratas del Niágara, Canadá",2026-01-29
2693,42,Yellowknife,Canadá,yellowknife,canada,212.0,10.0,7.39999999999999,62.454147,-114.377807,10,Actividades en Yellowknife,2026-01-29
2696,42,Banff,Canadá,banff,canada,386.0,24.0,8.666666666666663,51.1773316,-115.6029413,14,Actividades en Banff,2026-01-29
2794,42,Quebec,Canadá,quebec,canada,3712.0,215.0,8.809302325581394,45.2593281,-73.9842175,13,Actividades en Quebec,2026-01-29
2826,42,Ottawa,Canadá,ottawa,canada,2394.0,127.0,8.110236220472453,45.3176372,-75.744911,8,Actividades en Ottawa,2026-01-29
3280,42,Whistler,Canadá,whistler,canada,151.0,4.0,10.0,50.1164082,-122.971015,8,Actividades en Whistler,2026-01-29
4661,42,Tadoussac,Canadá,tadoussac,canada,416.0,15.0,7.600000000000013,48.1752768,-69.8233458,4,Actividades en Tadoussac,2026-01-29
5087,42,Halifax,Canadá,halifax,canada,54.0,0.0,,44.61184181,-63.59329733,8,Actividades en Halifax,2026-01-29
5090,42,Cline River,Canadá,cline-river,canada,18.0,0.0,,52.1893144,-116.4790401,5,Actividades en Cline River,2026-01-29
5249,42,Saint John,Canadá,saint-john-canada,canada,8.0,1.0,2.0,45.278752,-66.058044,3,Actividades en Saint John,2026-01-29
5250,42,Charlottetown,Canadá,charlottetown,canada,7.0,0.0,,46.2619612,-63.13589,5,Actividades en Charlottetown,2026-01-29
5348,42,San Juan de Terranova,Canadá,san-juan-de-terranova,canada,0.0,0.0,,47.4826312,-52.8296403,3,Actividades en San Juan de Terranova,2026-01-29
5429,42,Telegraph Cove,Canadá,telegraph-cove,canada,0.0,0.0,,50.5492449,-126.8425722,4,Actividades en Telegraph Cove,2026-01-29
5433,42,Jasper,Canadá,jasper,canada,4.0,0.0,,52.8789392,-118.108531,3,Actividades en Jasper,2026-01-29
5434,42,Naramata,Canadá,naramata,canada,0.0,0.0,,49.5958195,-119.5945676,3,Actividades en Naramata,2026-01-29
5834,42,Edmonton,Canadá,edmonton,canada,0.0,0.0,,53.5461142852977,-113.51326999637915,5,Actividades en Edmonton,2026-01-29
3,45,Praga,República Checa,praga,republica-checa,1431534.0,109267.0,9.090557441862584,50.087802,14.420457,79,Actividades<strong> en Praga</strong>,2026-01-29
1240,45,Brno,República Checa,brno,republica-checa,37.0,3.0,10.0,49.2017313,16.2977871,3,Actividades en Brno,2026-01-29
3240,45,Kutná Hora,República Checa,kutna-hora,republica-checa,48.0,2.0,10.0,49.9492089,15.247044,2,Actividades en Kutná Hora,2026-01-29
3241,45,Karlovy Vary,República Checa,karlovy-vary,republica-checa,197.0,1.0,10.0,50.2168744,12.7942749,2,Actividades en Karlovy Vary,2026-01-29
3425,45,Ceský Krumlov,República Checa,cesky-krumlov,republica-checa,196.0,16.0,9.625,48.8123177,14.2771678,3,Actividades en Ceský Krumlov,2026-01-29
5118,45,Děčín,República Checa,decin,republica-checa,,,,50.7847002,14.1754318,0,Actividades en Děčín,2026-01-29
216,46,Santiago de Chile,Chile,santiago-de-chile,chile,108308.0,7129.0,8.774388179734222,-33.4489,-70.6693,85,Actividades<strong> en Santiago de Chile</strong>,2026-01-29
242,46,Valparaíso,Chile,valparaiso,chile,9166.0,533.0,9.643652282676692,-33.038761,-71.629076,29,Actividades<strong> en Valparaíso</strong>,2026-01-29
245,46,Puerto Varas,Chile,puerto-varas,chile,5108.0,426.0,8.821596244131458,-41.318111,-72.983086,24,Actividades<strong> en Puerto Varas</strong>,2026-01-29
249,46,Punta Arenas,Chile,punta-arenas,chile,4674.0,416.0,8.918269230769246,-53.162716,-70.908175,24,Actividades<strong> en Punta Arenas</strong>,2026-01-29
250,46,Puerto Natales,Chile,puerto-natales,chile,2577.0,180.0,8.977777777777769,-51.731582,-72.498435,12,Actividades<strong> en Puerto Natales</strong>,2026-01-29
251,46,San Pedro de Atacama,Chile,san-pedro-de-atacama,chile,7460.0,455.0,8.914285714285716,-22.910691,-68.200162,28,Actividades<strong> en San Pedro de Atacama</strong>,2026-01-29
256,46,Isla de Pascua,Chile,isla-de-pascua,chile,983.0,84.0,9.095238095238106,-27.153747,-109.42379,12,Actividades<strong> en Isla de Pascua</strong>,2026-01-29
1294,46,Viña del Mar,Chile,vina-mar,chile,762.0,35.0,9.714285714285698,-33.0053654,-71.6002951,14,Actividades en Viña del Mar,2026-01-29
1609,46,Puerto Montt,Chile,puerto-montt,chile,1584.0,149.0,9.060402684550358,-41.471896,-72.939684,24,Actividades en Puerto Montt,2026-01-29
1966,46,Pucón,Chile,pucon,chile,317.0,22.0,7.818181818090909,-39.2803194,-71.9679353,16,Actividades en Pucón,2026-01-29
2131,46,Ensenada,Chile,ensenada-chile,chile,0.0,0.0,,-41.2072994,-72.5403694,3,Actividades en Ensenada,2026-01-29
2734,46,Villa O'Higgins,Chile,villa-ohiggins,chile,,,,-48.4801741,-72.5867751,0,Actividades en Villa O'Higgins,2026-01-29
2779,46,San Antonio,Chile,san-antonio-chile,chile,0.0,0.0,,-33.6124202,-71.6112812,3,Actividades en San Antonio,2026-01-29
3427,46,Castro,Chile,castro,chile,39.0,3.0,4.666666666666667,-42.5217453,-73.9207253,10,Actividades en Castro,2026-01-29
3446,46,Buin,Chile,buin,chile,35.0,1.0,2.0,-33.7296357,-70.7637728,5,Actividades en Buin,2026-01-29
3461,46,Ancud,Chile,ancud,chile,244.0,16.0,9.5,-41.8752218,-73.8513232,3,Actividades en Ancud,2026-01-29
3462,46,Chonchi,Chile,chonchi,chile,,,,-42.6236408,-73.790868,8,Actividades en Chonchi,2026-01-29
3645,46,Queilen,Chile,queilen,chile,,,,-42.8874603,-73.4800557,0,Actividades en Queilen,2026-01-29
3650,46,La Serena,Chile,la-serena,chile,115.0,11.0,10.0,-29.9077694,-71.3144879,16,Actividades en La Serena,2026-01-29
3651,46,Coquimbo,Chile,coquimbo,chile,,,,-29.9704529,-71.3687306,0,Actividades en Coquimbo,2026-01-29
3652,46,Vicuña,Chile,vicuna,chile,,,,-30.0314094,-70.7315968,0,Actividades en Vicuña,2026-01-29
3653,46,Pisco Elqui,Chile,pisco-elqui,chile,41.0,3.0,8.666666666666666,-30.1312557,-70.5123106,8,Actividades en Pisco Elqui,2026-01-29
3657,46,Frutillar,Chile,frutillar,chile,128.0,5.0,8.4,-41.1134588,-73.0610424,3,Actividades en Frutillar,2026-01-29
3658,46,Iquique,Chile,iquique,chile,355.0,29.0,7.724137930965517,-20.2448127,-70.1738689,12,Actividades en Iquique,2026-01-29
3660,46,Coyhaique,Chile,coyhaique,chile,0.0,0.0,,-45.5775907,-72.0867652,3,Actividades en Coyhaique,2026-01-29
3797,46,Torres del Paine,Chile,torres-del-paine,chile,254.0,9.0,8.2222222222222,-51.2552229,-72.3554273,3,Actividades en Torres del Paine,2026-01-29
3851,46,Putre ,Chile,putre,chile,17.0,2.0,10.0,-18.1973132,-69.5663039,15,Actividades en Putre ,2026-01-29
3852,46,Antofagasta ,Chile,antofagasta,chile,,,,-23.6283541,-70.474769,0,Actividades en Antofagasta ,2026-01-29
3872,46,Futaleufú,Chile,futaleufu,chile,0.0,0.0,,-43.1872342,-71.8776954,3,Actividades en Futaleufú,2026-01-29
3873,46,Arica,Chile,arica,chile,160.0,14.0,8.4285714285714,-18.4724638,-70.3591881,7,Actividades en Arica,2026-01-29
3910,46,Valdivia,Chile,valdivia,chile,95.0,15.0,9.466666666666653,-39.8338706,-73.4461101,9,Actividades en Valdivia,2026-01-29
3921,46,Peulla ,Chile,peulla,chile,3.0,1.0,6.0,-41.0896986,-72.0264524,3,Actividades en Peulla ,2026-01-29
3991,46,Concepción,Chile,concepcion,chile,199.0,17.0,8.70588235294117,-36.8260216,-73.1030856,9,Actividades en Concepción,2026-01-29
4035,46,Puerto Tranquilo,Chile,puerto-tranquilo,chile,606.0,53.0,8.641509433962257,-46.6253325,-72.6854348,7,Actividades en Puerto Tranquilo,2026-01-29
4059,46,Chile Chico,Chile,chile-chico,chile,13.0,1.0,10.0,-46.5422585,-71.7321163,3,Actividades en Chile Chico,2026-01-29
4060,46,Puerto Williams,Chile,puerto-williams,chile,43.0,1.0,10.0,-54.9362292,-67.6263981,11,Actividades en Puerto Williams,2026-01-29
4061,46,Mallín Grande,Chile,mallin-grande,chile,0.0,0.0,,-46.7273031,-72.464799,3,Actividades en Mallín Grande,2026-01-29
4152,46,Puerto Sánchez,Chile,puerto-sanchez,chile,29.0,1.0,10.0,-46.591085,-72.578625,4,Actividades en Puerto Sánchez,2026-01-29
4200,46,Placilla,Chile,placilla,chile,,,,-34.63865,-71.117234,0,Actividades en Placilla,2026-01-29
4283,46,San Clemente,Chile,san-clemente,chile,,,,-35.537203,-71.504385,0,Actividades en San Clemente,2026-01-29
4284,46,Vilches,Chile,vilches,chile,,,,-35.5973245,-71.2127631,0,Actividades en Vilches,2026-01-29
4286,46,San Fabián de Alico,Chile,san-fabian-de-alico,chile,2.0,0.0,,-36.5540502,-71.5703382,4,Actividades en San Fabián de Alico,2026-01-29
4287,46,Hornopirén ,Chile,hornopiren,chile,0.0,0.0,,-41.96624,-72.4799738,3,Actividades en Hornopirén ,2026-01-29
4451,46,Malalcahuello ,Chile,malalcahuello,chile,2.0,0.0,,-38.4738198,-71.5918856,5,Actividades en Malalcahuello ,2026-01-29
4675,46,Pica,Chile,pica,chile,12.0,0.0,,-20.4894817,-69.3480206,7,Actividades en Pica,2026-01-29
4676,46,Ovalle,Chile,ovalle,chile,7.0,0.0,,-30.5921674,-71.2406977,12,Actividades en Ovalle,2026-01-29
4876,46,Calama,Chile,calama,chile,1568.0,108.0,9.203703703703658,-22.462554,-68.927163,11,Actividades en Calama,2026-01-29
5132,46,Puerto Chacabuco,Chile,puerto-chacabuco,chile,397.0,29.0,9.379310344827628,-45.4636223,-72.8193348,6,Actividades en Puerto Chacabuco,2026-01-29
5303,46,Casablanca,Chile,casablanca-chile,chile,0.0,0.0,,-33.318541,-71.4065348,3,Actividades en Casablanca,2026-01-29
5315,46,Llanquihue,Chile,llanquihue,chile,,,,-41.256861,-73.006111,0,Actividades en Llanquihue,2026-01-29
5322,46,Olmué,Chile,olmue,chile,7.0,2.0,10.0,-32.998125,-71.1906164,4,Actividades en Olmué,2026-01-29
5694,46,Caleta Chañaral,Chile,caleta-chanaral,chile,0.0,0.0,,-29.07867428520302,-71.49009080780912,3,Actividades en Caleta Chañaral,2026-01-29
5856,46,Linares,Chile,linares-chile,chile,,,,-35.84513217708813,-71.60255635850302,0,Actividades en Linares,2026-01-29
15,47,Hong Kong,China,hong-kong,china,8182.0,432.0,9.092592592592602,22.2915843,114.1740517,25,Actividades<strong> en Hong Kong</strong>,2026-01-29
42,47,Pekín,China,pekin,china,46778.0,2784.0,8.869877873563226,39.904272,116.407356,40,Actividades<strong> en Pekín</strong>,2026-01-29
43,47,Shanghái,China,shanghai,china,23216.0,1193.0,9.204526404023468,31.230417,121.473684,27,Actividades<strong> en Shanghái</strong>,2026-01-29
56,47,Xián,China,xian,china,5537.0,339.0,9.09144542772863,34.2689542,108.9500422,18,Actividades<strong> en Xián</strong>,2026-01-29
333,47,Chengdú,China,chengdu,china,1117.0,64.0,9.093749999999996,30.5715501,104.0653068,17,Actividades en Chengdú,2026-01-29
338,47,Guilin,China,guilin,china,1529.0,88.0,8.409090909090928,25.2464671,110.2498962,10,Actividades en Guilin,2026-01-29
347,47,Taipéi,China,taipei,china,2605.0,154.0,8.675324675324676,25.0318637,121.5627362,29,Actividades en Taipéi,2026-01-29
385,47,Lhasa,China,lhasa,china,28.0,1.0,2.0,29.6485211,90.8651347,5,Actividades en Lhasa,2026-01-29
601,47,Zhangjiajie,China,zhangjiajie,china,223.0,11.0,7.8181818181818095,29.1152541,110.2463985,6,Actividades en Zhangjiajie,2026-01-29
667,47,Kaohsiung,China,kaohsiung,china,24.0,2.0,10.0,22.493101,120.358504,3,Actividades en Kaohsiung,2026-01-29
721,47,Luoyang,China,luoyang,china,35.0,2.0,9.0,34.6138292,112.4402309,2,Actividades en Luoyang,2026-01-29
769,47,Cantón,China,canton,china,183.0,13.0,8.0,23.128214,113.260098,5,Actividades en Cantón,2026-01-29
1114,47,Hangzhou,China,hangzhou,china,64.0,6.0,9.666666666666666,30.2733627,120.126066,5,Actividades en Hangzhou,2026-01-29
2095,47,Chongqing,China,chongqing,china,167.0,9.0,9.7777777777778,29.5548387,106.4081275,12,Actividades en Chongqing,2026-01-29
2101,47,Yichang,China,yichang,china,0.0,0.0,,30.6959144,111.2780793,2,Actividades en Yichang,2026-01-29
2221,47,Yangshuo,China,yangshuo,china,60.0,1.0,10.0,24.775157,110.492707,5,Actividades en Yangshuo,2026-01-29
2722,47,Tianjin,China,tianjin,china,2.0,0.0,,39.1247556,116.7351104,3,Actividades en Tianjin,2026-01-29
5661,47,Huangshan,China,huangshan,china,,,,29.7189693568419,118.3306956847803,0,Actividades en Huangshan,2026-01-29
5671,47,Kunming,China,kunming,china,,,,24.89126009575675,102.8260012973806,0,Actividades en Kunming,2026-01-29
5722,47,Shenzhen,China,shenzhen,china,,,,22.563701963278476,114.06066969344924,0,Actividades en Shenzhen,2026-01-29
5739,47,Taichung,China,taichung,china,,,,24.177159281199184,120.66328872613646,0,Actividades en Taichung,2026-01-29
5816,47,Tainan,China,tainan,china,0.0,0.0,,23.000823595389583,120.2239024627263,2,Actividades en Tainan,2026-01-29
967,48,Limasol,Chipre,limasol,chipre,174.0,0.0,,35.1658561,32.3013122,3,Actividades en Limasol,2026-01-29
1558,48,Lárnaca,Chipre,larnaca,chipre,35.0,4.0,10.0,34.926325,33.639906,3,Actividades en Lárnaca,2026-01-29
1561,48,Pafos,Chipre,pafos,chipre,77.0,9.0,8.88888888888889,34.771516,32.429985,10,Actividades en Pafos,2026-01-29
1564,48,Protaras,Chipre,protaras,chipre,4.0,1.0,10.0,35.012598,34.058602,2,Actividades en Protaras,2026-01-29
3304,48,Nicosia,Chipre,nicosia,chipre,,,,35.1923727,33.3273615,0,Actividades en Nicosia,2026-01-29
214,52,Cali,Colombia,cali,colombia,17654.0,470.0,9.093617021268054,3.448716,-76.533635,43,Actividades<strong> en Cali</strong>,2026-01-29
220,52,Bogotá,Colombia,bogota,colombia,130363.0,8338.0,9.241911729430813,4.597855,-74.075826,103,Actividades<strong> en Bogotá</strong>,2026-01-29
223,52,San Andrés,Colombia,san-andres,colombia,6891.0,339.0,8.20648967551622,12.579733,-81.698426,38,Actividades<strong> en San Andrés</strong>,2026-01-29
230,52,Medellín,Colombia,medellin,colombia,368448.0,22924.0,9.360165765136616,6.2541405,-75.565332,98,Actividades<strong> en Medellín</strong>,2026-01-29
237,52,Cartagena de Indias,Colombia,cartagena-de-indias,colombia,268514.0,9972.0,8.701720818290406,10.423317,-75.551198,132,Actividades<strong> en Cartagena de Indias</strong>,2026-01-29
255,52,Santa Marta,Colombia,santa-marta,colombia,49853.0,2458.0,9.09646053702196,11.245045,-74.213841,73,Actividades<strong> en Santa Marta</strong>,2026-01-29
386,52,Manizales,Colombia,manizales,colombia,220.0,20.0,9.40000000000002,5.0688647,-75.5536831,21,Actividades en Manizales,2026-01-29
717,52,La Macarena,Colombia,macarena,colombia,33.0,4.0,9.5,2.183317,-73.787742,4,Actividades en La Macarena,2026-01-29
991,52,Neiva,Colombia,neiva,colombia,196.0,28.0,9.642857142857109,2.927242,-75.289571,25,Actividades en Neiva,2026-01-29
1063,52,Leticia,Colombia,leticia,colombia,1579.0,128.0,7.843749999999994,-4.2120793,-69.9442064,25,Actividades en Leticia,2026-01-29
1459,52,Providencia,Colombia,providencia,colombia,90.0,4.0,10.0,13.3539705,-81.3800248,12,Actividades en Providencia,2026-01-29
1483,52,Riohacha,Colombia,riohacha,colombia,140.0,16.0,8.499999999750006,11.5409965,-72.9208166,16,Actividades en Riohacha,2026-01-29
1501,52,Pereira,Colombia,pereira,colombia,2339.0,211.0,9.393364928909987,4.814208,-75.6952238,30,Actividades en Pereira,2026-01-29
1507,52,Armenia,Colombia,armenia-colombia,colombia,709.0,68.0,9.147058823529386,4.5422707,-75.7155692,30,Actividades en Armenia,2026-01-29
1549,52,Bucaramanga,Colombia,bucaramanga,colombia,318.0,16.0,8.875,7.1192899,-73.1679975,15,Actividades en Bucaramanga,2026-01-29
1630,52,San Gil,Colombia,san-gil,colombia,113.0,6.0,8.33333333333335,6.5526643,-73.1448762,10,Actividades en San Gil,2026-01-29
2296,52,Villavieja,Colombia,villavieja,colombia,23.0,1.0,4.0,3.219576,-75.218955,8,Actividades en Villavieja,2026-01-29
2302,52,Barranquilla,Colombia,barranquilla,colombia,4070.0,175.0,8.777142857142834,10.9913088,-74.8015386,34,Actividades en Barranquilla,2026-01-29
2860,52,Puerto Nariño,Colombia,puerto-narino,colombia,188.0,14.0,8.28571428571428,-3.7884266,-70.3551677,9,Actividades en Puerto Nariño,2026-01-29
3035,52,Suesca,Colombia,suesca,colombia,29.0,3.0,4.666666666666667,5.1039503,-73.8073867,10,Actividades en Suesca,2026-01-29
3036,52,Filandia,Colombia,filandia,colombia,138.0,9.0,8.666666666666679,4.6757833,-75.6681138,13,Actividades en Filandia,2026-01-29
3037,52,Calarcá,Colombia,calarca,colombia,2.0,0.0,,4.523143,-75.6627261,6,Actividades en Calarcá,2026-01-29
3038,52,Salento,Colombia,salento,colombia,2771.0,303.0,9.445544554455454,4.6373867,-75.5751544,34,Actividades en Salento,2026-01-29
3070,52,Ibagué,Colombia,ibague,colombia,123.0,17.0,8.588235294117647,4.4444757,-75.2414393,35,Actividades en Ibagué,2026-01-29
3082,52,Quimbaya,Colombia,quimbaya,colombia,37.0,1.0,10.0,4.6259075,-75.7706204,7,Actividades en Quimbaya,2026-01-29
3172,52,Guatapé,Colombia,guatape,colombia,1658.0,72.0,9.305555555499998,6.233846,-75.160735,30,Actividades en Guatapé,2026-01-29
3174,52,Buenavista,Colombia,buenavista,colombia,86.0,11.0,10.0,4.3698062,-75.7821037,5,Actividades en Buenavista,2026-01-29
3183,52,Villa de Leyva,Colombia,villa-de-leyva,colombia,599.0,42.0,8.380952380952372,5.639093,-73.5557967,23,Actividades en Villa de Leyva,2026-01-29
3203,52,Palomino,Colombia,palomino,colombia,37.0,3.0,5.333333333333333,11.245108,-73.559427,10,Actividades en Palomino,2026-01-29
3818,52,Sesquilé,Colombia,sesquile,colombia,,,,5.0452674,-73.8013019,0,Actividades en Sesquilé,2026-01-29
3829,52,Fusagasugá,Colombia,fusagasuga,colombia,,,,4.3387037,-74.4193491,0,Actividades en Fusagasugá,2026-01-29
3830,52,Jardín,Colombia,jardin,colombia,232.0,21.0,7.523809523809524,5.5967669,-75.8281158,10,Actividades en Jardín,2026-01-29
3831,52,Mompox,Colombia,mompox,colombia,191.0,20.0,8.200000000000014,9.2435566,-74.4420057,12,Actividades en Mompox,2026-01-29
3901,52,Silvia ,Colombia,silvia,colombia,9.0,0.0,,2.6116145,-76.3862953,9,Actividades en Silvia ,2026-01-29
3914,52,Bahía Solano,Colombia,bahia-solano,colombia,49.0,3.0,10.0,6.2225516,-77.4186636,4,Actividades en Bahía Solano,2026-01-29
3966,52,Pasto,Colombia,pasto,colombia,435.0,41.0,9.707317073170712,1.2135252,-77.3122422,13,Actividades en Pasto,2026-01-29
3967,52,Villavicencio,Colombia,villavicencio,colombia,53.0,0.0,,4.1247544,-73.6791007,13,Actividades en Villavicencio,2026-01-29
3968,52,Popayán,Colombia,popayan,colombia,171.0,19.0,9.473684210526317,2.4573831,-76.6699746,20,Actividades en Popayán,2026-01-29
3974,52,Murillo,Colombia,murillo,colombia,0.0,0.0,,3.8041897,-74.9603196,4,Actividades en Murillo,2026-01-29
3998,52,Ciénaga,Colombia,cienaga,colombia,22.0,3.0,6.666666666666667,11.009056,-74.2632396,9,Actividades en Ciénaga,2026-01-29
4097,52,Honda,Colombia,honda,colombia,41.0,4.0,10.0,5.2104304,-74.8001182,6,Actividades en Honda,2026-01-29
4100,52,Fresno,Colombia,fresno,colombia,,,,5.1533272,-75.0520525,0,Actividades en Fresno,2026-01-29
4105,52,Líbano ,Colombia,libano-colombia,colombia,,,,4.9209558,-75.0806392,0,Actividades en Líbano ,2026-01-29
4111,52,Cocorná,Colombia,cocorna,colombia,0.0,0.0,,6.057265,-75.1899748,7,Actividades en Cocorná,2026-01-29
4202,52,Chocontá,Colombia,choconta,colombia,0.0,0.0,,5.146316,-73.6921322,3,Actividades en Chocontá,2026-01-29
4203,52,Zipaquirá,Colombia,zipaquira,colombia,845.0,42.0,8.6666666666667,5.0237499,-74.0035447,3,Actividades en Zipaquirá,2026-01-29
4313,52,Sutatausa,Colombia,sutatausa,colombia,0.0,0.0,,5.2472955,-73.8548552,3,Actividades en Sutatausa,2026-01-29
4314,52,Cucunubá,Colombia,cucunuba,colombia,,,,5.250513,-73.7712404,0,Actividades en Cucunubá,2026-01-29
4315,52,Simijaca,Colombia,simijaca,colombia,0.0,0.0,,5.5039017,-73.8563489,3,Actividades en Simijaca,2026-01-29
4316,52,Ubaté,Colombia,ubate,colombia,0.0,0.0,,5.3072419,-73.8227823,4,Actividades en Ubaté,2026-01-29
4317,52,Fúquene,Colombia,fuquene,colombia,0.0,0.0,,5.4039164,-73.7977606,5,Actividades en Fúquene,2026-01-29
4420,52,Útica,Colombia,utica,colombia,12.0,0.0,,5.1892235,-74.4846564,8,Actividades en Útica,2026-01-29
4421,52,Tobia,Colombia,tobia,colombia,6.0,0.0,,5.1234345,-74.4512457,8,Actividades en Tobia,2026-01-29
4422,52,Ipiales,Colombia,ipiales,colombia,157.0,9.0,9.77777777777778,0.8262219,-77.6550351,6,Actividades en Ipiales,2026-01-29
4497,52,Guaduas,Colombia,guaduas,colombia,5.0,0.0,,5.0705143,-74.6188106,3,Actividades en Guaduas,2026-01-29
4498,52,Barú ,Colombia,baru,colombia,232.0,6.0,7.333333333333333,10.1671516,-75.67287,9,Actividades en Barú ,2026-01-29
4872,52,San Agustín,Colombia,san-agustin-colombia,colombia,30.0,4.0,6.5,1.883124,-76.272843,14,Actividades en San Agustín,2026-01-29
4873,52,Monguí,Colombia,mongui,colombia,0.0,0.0,,5.724719,-72.849424,4,Actividades en Monguí,2026-01-29
4944,52,Barichara,Colombia,barichara,colombia,509.0,21.0,9.23809523809522,6.63593,73.22337,12,Actividades en Barichara,2026-01-29
4975,52,Salgar,Colombia,salgar,colombia,0.0,0.0,,5.96339,7.59791,5,Actividades en Salgar,2026-01-29
4984,52,San Rafael,Colombia,san-rafael-colombia,colombia,0.0,0.0,,6.29557,75.02757,3,Actividades en San Rafael,2026-01-29
4985,52,Santa Elena,Colombia,santa-elena,colombia,0.0,0.0,,6.21052,75.49818,5,Actividades en Santa Elena,2026-01-29
4989,52,San Luis,Colombia,san-luis-colombia,colombia,,,,6.04318,74.99438,6,Actividades en San Luis,2026-01-29
5016,52,Valledupar,Colombia,valledupar,colombia,40.0,1.0,10.0,10.47028,-73.25788,6,Actividades en Valledupar,2026-01-29
5017,52,Guarne,Colombia,guarne,colombia,10.0,0.0,,6.28248,-75.44316,4,Actividades en Guarne,2026-01-29
5018,52,Tenjo,Colombia,tenjo,colombia,,,,4.83345,-74.13412,3,Actividades en Tenjo,2026-01-29
5060,52,Cartago,Colombia,cartago,colombia,3.0,1.0,2.0,4.749615,-75.913186,5,Actividades en Cartago,2026-01-29
5104,52,Tunja,Colombia,tunja,colombia,26.0,3.0,10.0,5.54407,7.33572,13,Actividades en Tunja,2026-01-29
5105,52,Envigado,Colombia,envigado,colombia,0.0,0.0,,6.16733,7.5584,3,Actividades en Envigado,2026-01-29
5128,52,San Basilio de Palenque,Colombia,san-basilio-de-palenque,colombia,6.0,0.0,,10.10428,75.19978,3,Actividades en San Basilio de Palenque,2026-01-29
5137,52,Puerto Triunfo,Colombia,puerto-triunfo,colombia,20.0,0.0,,5.886187,7.463826,5,Actividades en Puerto Triunfo,2026-01-29
5224,52,Altavista,Colombia,altavista,colombia,,,,6.225394,75.63277,0,Actividades en Altavista,2026-01-29
5307,52,Rionegro,Colombia,rionegro,colombia,15.0,2.0,10.0,6.1448369,-75.374118,6,Actividades en Rionegro,2026-01-29
5367,52,Playa de Ladrilleros,Colombia,playa-de-ladrilleros,colombia,3.0,0.0,,3.9370772703999997,-77.36514982852827,5,Actividades en Playa de Ladrilleros,2026-01-29
5368,52,Buenaventura,Colombia,buenaventura,colombia,3.0,0.0,,3.879258141129333,-77.01067220812895,3,Actividades en Buenaventura,2026-01-29
5370,52,Coveñas,Colombia,covenas,colombia,22.0,0.0,,9.403631254990724,-75.68118889879713,6,Actividades en Coveñas,2026-01-29
5374,52,Santiago de Tolú,Colombia,santiago-de-tolu,colombia,203.0,10.0,8.40000000000003,9.52514432878431,-75.58213151398797,7,Actividades en Santiago de Tolú,2026-01-29
5438,52,Jericó,Colombia,jerico,colombia,0.0,0.0,,5.7905337,-75.7935548,3,Actividades en Jericó,2026-01-29
5510,52,Pitalito,Colombia,pitalito,colombia,0.0,0.0,,1.8530019,-76.0652186,8,Actividades en Pitalito,2026-01-29
5511,52,Campo Alegre,Colombia,campo-alegre,colombia,,,,2.6894902,-75.3243685,3,Actividades en Campo Alegre,2026-01-29
5639,52,Buga,Colombia,buga,colombia,16.0,1.0,10.0,3.900383679324051,-76.30205120938614,3,Actividades en Buga,2026-01-29
5711,52,Minca,Colombia,minca,colombia,132.0,2.0,10.0,11.143475212867152,-74.11738505651287,10,Actividades en Minca,2026-01-29
5726,52,San José del Guaviare,Colombia,san-jose-del-guaviare,colombia,0.0,0.0,,2.5672916410936755,-72.64015946359991,3,Actividades en San José del Guaviare,2026-01-29
5733,52,Nemocón,Colombia,nemocon,colombia,14.0,1.0,10.0,5.06642719977842,-73.87694178806008,3,Actividades en Nemocón,2026-01-29
5746,52,San Félix,Colombia,san-felix,colombia,8.0,1.0,8.0,6.340167201200543,-75.60807686857063,3,Actividades en San Félix,2026-01-29
5768,52,Puerto Colombia,Colombia,puerto-colombia,colombia,27.0,0.0,,10.991327445644027,-74.9572057346304,3,Actividades en Puerto Colombia,2026-01-29
5787,52,Turmequé,Colombia,turmeque,colombia,0.0,0.0,,5.324520262217419,-73.49168411902029,5,Actividades en Turmequé,2026-01-29
5788,52,Isla Fuerte,Colombia,isla-fuerte,colombia,0.0,0.0,,9.38762165020462,-76.17967343603962,3,Actividades en Isla Fuerte,2026-01-29
5789,52,Turbaco,Colombia,turbaco,colombia,0.0,0.0,,10.334919465338867,-75.41279806610773,3,Actividades en Turbaco,2026-01-29
5791,52,Santa Rosa de Cabal,Colombia,santa-rosa-de-cabal,colombia,2.0,0.0,,4.870931437447111,-75.62687909158221,7,Actividades en Santa Rosa de Cabal,2026-01-29
5792,52,Paipa,Colombia,paipa,colombia,,,,5.780107315507323,-73.11472097793329,0,Actividades en Paipa,2026-01-29
5844,52,Chía,Colombia,chia-colombia,colombia,,,,4.8626209950390455,-74.05573981098745,0,Actividades en Chía,2026-01-29
640,58,Seúl,Corea del Sur,seul,corea-del-sur,23329.0,1859.0,9.212877891339453,37.5394371,126.9888238,43,Actividades en Seúl,2026-01-29
766,58,Busan,Corea del Sur,busan,corea-del-sur,2536.0,262.0,9.236641221374034,35.157757,129.059276,14,Actividades en Busan,2026-01-29
1438,58,Jeju,Corea del Sur,jeju,corea-del-sur,372.0,53.0,9.77358490566034,33.500702,126.529098,5,Actividades en Jeju,2026-01-29
2450,58,Daegu,Corea del Sur,daegu,corea-del-sur,41.0,0.0,,35.8683093,128.580344,2,Actividades en Daegu,2026-01-29
5444,58,Jeonju,Corea del Sur,jeonju,corea-del-sur,,,,35.8283396,127.1134764,0,Actividades en Jeonju,2026-01-29
5497,58,Daejeon,Corea del Sur,daejeon,corea-del-sur,,,,36.34182454428281,127.39565533719316,0,Actividades en  Daejeon,2026-01-29
5584,58,Chuncheon,Corea del Sur,chuncheon,corea-del-sur,,,,37.880104463384576,127.73904345493476,0,Actividades en Chuncheon,2026-01-29
304,60,San José,Costa Rica,san-jose,costa-rica,29851.0,1726.0,9.220509849360369,9.9323904,-84.1046755,39,Actividades en San José,2026-01-29
311,60,Manuel Antonio,Costa Rica,manuel-antonio,costa-rica,2978.0,267.0,8.913857677902636,9.4076152,-84.1560889,20,Actividades en Manuel Antonio,2026-01-29
315,60,Arenal,Costa Rica,arenal,costa-rica,9623.0,1024.0,9.263203125000006,10.4641472,-84.7196494,24,Actividades en Arenal,2026-01-29
928,60,Isla del Caño,Costa Rica,isla-cano,costa-rica,,,,8.706756,-83.877694,0,Actividades en Isla del Caño,2026-01-29
946,60,Bahía Drake,Costa Rica,bahia-drake,costa-rica,635.0,46.0,7.913043478130441,8.690169,-83.666864,13,Actividades en Bahía Drake,2026-01-29
1276,60,Jacó,Costa Rica,jaco,costa-rica,155.0,7.0,9.428571428571429,9.6158548,-84.6436072,13,Actividades en Jacó,2026-01-29
1282,60,Guanacaste,Costa Rica,guanacaste,costa-rica,146.0,13.0,8.76923076923077,10.6295847,-85.4567243,15,Actividades en Guanacaste,2026-01-29
1588,60,La Fortuna,Costa Rica,la-fortuna,costa-rica,1755.0,163.0,8.98159509202455,10.4699398,-84.657898,26,Actividades en La Fortuna,2026-01-29
1816,60,Puntarenas,Costa Rica,puntarenas,costa-rica,169.0,10.0,7.0,9.9785489,-84.8572406,5,Actividades en Puntarenas,2026-01-29
2233,60,Monteverde,Costa Rica,monteverde,costa-rica,3444.0,235.0,8.93617021276595,10.2876619,-84.8460744,13,Actividades en Monteverde,2026-01-29
3767,60,Guápiles,Costa Rica,guapiles,costa-rica,6.0,1.0,10.0,10.2096013,-83.9900395,4,Actividades en Guápiles,2026-01-29
4081,60,San Gerardo de Dota,Costa Rica,san-gerardo-de-dota,costa-rica,0.0,0.0,,9.5670227,-83.8236667,2,Actividades en San Gerardo de Dota,2026-01-29
4083,60,Bribrí,Costa Rica,bribri,costa-rica,33.0,2.0,10.0,9.6247937,-82.8645517,3,Actividades en Bribrí,2026-01-29
4084,60,San Marcos de Tarrazú,Costa Rica,san-marcos-de-tarrazu,costa-rica,2.0,1.0,10.0,9.6675106,-84.0498151,2,Actividades en San Marcos de Tarrazú,2026-01-29
4086,60,Santa Rosa de Pocosol,Costa Rica,santa-rosa-de-pocosol,costa-rica,,,,10.6241771,-84.537499,0,Actividades en Santa Rosa de Pocosol,2026-01-29
4785,60,Caldera,Costa Rica,caldera,costa-rica,,,,9.9356056,-84.7248458,3,Actividades en Caldera,2026-01-29
4822,60,Uvita,Costa Rica,uvita,costa-rica,411.0,17.0,8.0,9.163323,-83.7380505,5,Actividades en Uvita,2026-01-29
4823,60,Sierpe,Costa Rica,sierpe,costa-rica,98.0,8.0,10.0,8.869171,-83.4714122,4,Actividades en Sierpe,2026-01-29
4824,60,Dominical,Costa Rica,dominical,costa-rica,,,,9.2514793,-83.8676119,0,Actividades en Dominical,2026-01-29
4825,60,Ciudad Cortés,Costa Rica,ciudad-cortes,costa-rica,0.0,0.0,,8.963951777,-83.52399028,2,Actividades en Ciudad Cortés,2026-01-29
4886,60,Rincón de la Vieja,Costa Rica,rincon-de-la-vieja,costa-rica,96.0,2.0,8.0,10.8315284,-85.3363521,8,Actividades en Rincón de la Vieja,2026-01-29
4988,60,Limón,Costa Rica,limon,costa-rica,13.0,1.0,10.0,9.9918003,-83.042779,3,Actividades en Limón,2026-01-29
4995,60,Pochote,Costa Rica,pochote,costa-rica,13.0,2.0,7.0,9.7492402,-84.9919082,3,Actividades en Pochote,2026-01-29
5094,60,Santa Ana,Costa Rica,santa-ana,costa-rica,,,,9.9285893,-84.1807975,7,Actividades en Santa Ana,2026-01-29
5219,60,Tortuguero,Costa Rica,tortuguero,costa-rica,899.0,72.0,9.027777777777787,10.5445634,-83.5031318,9,Actividades en Tortuguero,2026-01-29
5235,60,Alajuela ,Costa Rica,alajuela,costa-rica,0.0,0.0,,10.0226092,-84.2145664,14,Actividades en Alajuela ,2026-01-29
5363,60,Cartago,Costa Rica,cartago-costa-rica,costa-rica,,,,9.8542073,-83.9251894,2,Actividades en Cartago,2026-01-29
5364,60,Heredia,Costa Rica,heredia,costa-rica,0.0,0.0,,9.9983521,-84.1218915,12,Actividades en Heredia,2026-01-29
5593,60,Tárcoles,Costa Rica,tarcoles,costa-rica,33.0,1.0,10.0,9.75695838127399,-84.6240362908959,3,Actividades en Tárcoles,2026-01-29
5650,60,Nosara,Costa Rica,nosara,costa-rica,0.0,0.0,,9.9772824,-85.6647134,2,Actividades en Nosara,2026-01-29
5659,60,Turrialba,Costa Rica,turrialba,costa-rica,26.0,1.0,10.0,9.907503815746708,-83.68369819253459,3,Actividades en Turrialba,2026-01-29
5696,60,Puerto Viejo de Talamanca,Costa Rica,puerto-viejo-de-talamanca,costa-rica,14.0,3.0,10.0,9.65666255474622,-82.75532744664542,3,Actividades en Puerto Viejo de Talamanca,2026-01-29
5732,60,Tambor,Costa Rica,tambor,costa-rica,0.0,0.0,,9.741971971325034,-85.01353024178697,3,Actividades en Tambor,2026-01-29
148,61,Dubrovnik,Croacia,dubrovnik,croacia,158878.0,11099.0,8.990641799561512,42.6424058,18.1096683,29,Actividades<strong> en Dubrovnik</strong>,2026-01-29
317,61,Split,Croacia,split,croacia,104163.0,4428.0,8.991007226738937,43.508449,16.436014,22,Actividades en Split,2026-01-29
330,61,Zadar,Croacia,zadar,croacia,14835.0,1233.0,9.18637469586375,44.1350575,15.1788645,15,Actividades en Zadar,2026-01-29
407,61,Zagreb,Croacia,zagreb,croacia,49792.0,4806.0,9.506826189485396,45.7891962,15.9351653,13,Actividades en Zagreb,2026-01-29
472,61,Trogir,Croacia,trogir,croacia,271.0,26.0,7.461538461538472,43.517091,16.25114,7,Actividades en Trogir,2026-01-29
1379,61,Hvar,Croacia,hvar,croacia,1376.0,89.0,8.494382022471884,43.1701898,16.4407453,5,Actividades en Hvar,2026-01-29
2074,61,Pula,Croacia,pula,croacia,1597.0,75.0,8.799999999999999,44.872992,13.848628,10,Actividades en Pula,2026-01-29
2149,61,Rijeka,Croacia,rijeka,croacia,52.0,2.0,8.0,45.3269429,14.439635,6,Actividades en Rijeka,2026-01-29
2593,61,Rovinj,Croacia,rovinj,croacia,406.0,6.0,9.0,45.0831964,13.6309122,3,Actividades en Rovinj,2026-01-29
2611,61,Porec,Croacia,porec,croacia,35.0,0.0,,45.2312605,13.5628955,8,Actividades en Porec,2026-01-29
2620,61,Umag,Croacia,umag,croacia,,,,45.436119,13.523848,0,Actividades en Umag,2026-01-29
2777,61,Brac,Croacia,brac,croacia,136.0,12.0,8.333333333333334,43.304913,16.651752,3,Actividades en Brac,2026-01-29
2934,61,Korčula,Croacia,korcula,croacia,13.0,2.0,10.0,42.9474547,17.0979044,3,Actividades en Korčula,2026-01-29
3192,61,Šibenik,Croacia,sibenik,croacia,125.0,18.0,7.999999999999972,43.7415595,15.8174069,8,Actividades en Šibenik,2026-01-29
3259,61,Opatija,Croacia,opatija,croacia,3.0,0.0,,45.3395259,14.277706,6,Actividades en Opatija,2026-01-29
3928,61,Medulin ,Croacia,medulin,croacia,116.0,12.0,8.500000000000009,44.8237168,13.9000211,6,Actividades en Medulin ,2026-01-29
5109,61,Tučepi,Croacia,tucepi,croacia,7.0,1.0,10.0,43.2828263,17.0834514,2,Actividades en Tučepi,2026-01-29
5332,61,Obrovac,Croacia,obrovac,croacia,0.0,0.0,,44.1980877,15.6824971,2,Actividades en Obrovac,2026-01-29
5440,61,Zeljava,Croacia,zeljava,croacia,2.0,0.0,,44.8470463,15.6956901,2,Actividades en Zeljava,2026-01-29
5572,61,Lagos Plitvice,Croacia,lagos-plitvice,croacia,1682.0,146.0,8.849315068493112,44.86512164191747,15.581792783304829,3,Actividades en  Lagos Plitvice,2026-01-29
5632,61,Makarska,Croacia,makarska,croacia,18.0,1.0,10.0,43.29660431327002,17.01955384434029,3,Actividades en Makarska,2026-01-29
5635,61,Novalja,Croacia,novalja,croacia,0.0,0.0,,44.55819022400604,14.88596038610606,5,Actividades en Novalja,2026-01-29
155,62,La Habana,Cuba,la-habana,cuba,171280.0,11214.0,9.501671719871672,23.137223,-82.357885,77,Actividades<strong> en La Habana</strong>,2026-01-29
156,62,Varadero,Cuba,varadero,cuba,23979.0,921.0,8.271444082519,23.191807,-81.170475,36,Actividades<strong> en Varadero</strong>,2026-01-29
673,62,Viñales,Cuba,vinales,cuba,1558.0,136.0,9.250000000000025,22.6177822,-83.7080957,19,Actividades en Viñales,2026-01-29
679,62,Santiago de Cuba,Cuba,santiago-cuba,cuba,424.0,44.0,9.636363636363606,20.021437,-75.829655,7,Actividades en Santiago de Cuba,2026-01-29
1672,62,Trinidad,Cuba,trinidad,cuba,10725.0,722.0,9.50363804247458,21.8016262,-79.9846047,16,Actividades en Trinidad,2026-01-29
1879,62,Baracoa,Cuba,baracoa,cuba,0.0,0.0,,20.3416468,-74.4940744,4,Actividades en Baracoa,2026-01-29
2405,62,Santa Clara,Cuba,santa-clara,cuba,1275.0,64.0,9.093749999999956,22.406706,-79.965266,6,Actividades en Santa Clara,2026-01-29
2408,62,Cienfuegos,Cuba,cienfuegos,cuba,4459.0,317.0,9.148264984227142,22.14605,-80.453075,10,Actividades en Cienfuegos,2026-01-29
3275,62,Holguín,Cuba,holguin,cuba,26.0,1.0,2.0,20.8814369,-76.2924256,7,Actividades en Holguín,2026-01-29
3276,62,Guardalavaca,Cuba,guardalavaca,cuba,12.0,0.0,,21.1192915,-75.8448674,9,Actividades en Guardalavaca,2026-01-29
3289,62,Boca de Canasí,Cuba,boca-de-canasi,cuba,2.0,0.0,,23.14025,-81.78133,2,Actividades en Boca de Canasí,2026-01-29
4964,62,Matanzas,Cuba,matanzas,cuba,0.0,0.0,,23.0473704,-81.5182942,4,Actividades en Matanzas,2026-01-29
4980,62,Playa Jibacoa,Cuba,playa-jibacoa,cuba,2.0,0.0,,23.1488602,-81.8494528,3,Actividades en Playa Jibacoa,2026-01-29
5025,62,Cárdenas,Cuba,cardenas,cuba,92.0,14.0,10.0,23.0373692,-81.2092404,4,Actividades en Cárdenas,2026-01-29
5085,62,Santa Marta,Cuba,santa-marta-cuba,cuba,,,,23.1083135,-8.1316176,2,Actividades en Santa Marta,2026-01-29
5174,62,Ciego de Ávila,Cuba,ciego-de-avila,cuba,,,,21.8438111,-78.7619305,0,Actividades en Ciego de Ávila,2026-01-29
5259,62,Pinar del Río,Cuba,pinar-del-rio,cuba,0.0,0.0,,22.4123668,-83.69277,2,Actividades en Pinar del Río,2026-01-29
5313,62,Cayo Coco,Cuba,cayo-coco,cuba,25.0,1.0,6.0,22.4817473,-78.4859385,4,Actividades en Cayo Coco,2026-01-29
5314,62,Cayo Guillermo,Cuba,cayo-guillermo,cuba,,,,22.591068,-78.6962306,4,Actividades en Cayo Guillermo,2026-01-29
5333,62,Cayo Santa María,Cuba,cayo-santa-maria,cuba,211.0,16.0,8.500000000000025,22.6477764,-79.1065019,7,Actividades en Cayo Santa María,2026-01-29
5679,62,Camagüey,Cuba,camaguey,cuba,,,,21.38388576064771,-77.91838725752407,0,Actividades en Camagüey,2026-01-29
5702,62,Playa Santa Lucía,Cuba,playa-santa-lucia,cuba,0.0,0.0,,21.561539621744,-77.0421956078266,4,Actividades en Playa Santa Lucía,2026-01-29
175,63,Copenhague,Dinamarca,copenhague,dinamarca,557251.0,21685.0,9.13882253477829,55.686022,12.577431,48,Actividades<strong> en Copenhague</strong>,2026-01-29
751,63,Aarhus,Dinamarca,aarhus,dinamarca,350.0,8.0,9.75,56.1527265,10.20762611,5,Actividades en Aarhus,2026-01-29
4012,63,Tórshavn,Dinamarca,torshavn,dinamarca,,,,62.0151018,-6.8695785,0,Actividades en Tórshavn,2026-01-29
4013,63,Trøllanes,Dinamarca,trollanes,dinamarca,,,,62.3608397,-6.7939657,0,Actividades en Trøllanes,2026-01-29
4014,63,Sørvágur,Dinamarca,sorvagur,dinamarca,,,,62.0715971,-7.333889,0,Actividades en Sørvágur,2026-01-29
5172,63,Aalborg,Dinamarca,aalborg,dinamarca,4.0,0.0,,57.0268367,9.907774,3,Actividades en Aalborg,2026-01-29
5173,63,Odense,Dinamarca,odense,dinamarca,15.0,2.0,9.0,55.3842478,10.3978194,3,Actividades en Odense,2026-01-29
2485,64,Roseau,Dominica,roseau,dominica,80.0,4.0,9.0,15.3006909,-61.3815362,13,Actividades en Roseau,2026-01-29
125,65,Punta Cana,República Dominicana,punta-cana,republica-dominicana,117336.0,7295.0,8.154520447793637,18.605004,-68.344508,78,Actividades<strong> en Punta Cana</strong>,2026-01-29
916,65,Santo Domingo,República Dominicana,santo-domingo,republica-dominicana,37511.0,1878.0,8.910610578629774,18.4744913,-69.8921305,49,Actividades en Santo Domingo,2026-01-29
1525,65,Puerto Plata,República Dominicana,puerto-plata,republica-dominicana,867.0,25.0,8.48,19.794789,-70.686707,39,Actividades en Puerto Plata,2026-01-29
1810,65,La Romana,República Dominicana,la-romana,republica-dominicana,7406.0,481.0,8.36590436590438,18.4316009,-69.0095733,34,Actividades en La Romana,2026-01-29
2137,65,Samaná,República Dominicana,samana,republica-dominicana,3126.0,136.0,8.220588235294112,19.2117344,-69.3560827,25,Actividades en Samaná,2026-01-29
2770,65,Juan Dolio,República Dominicana,juan-dolio,republica-dominicana,378.0,39.0,8.666666666666673,18.454702,-69.481962,25,Actividades en Juan Dolio,2026-01-29
2802,65,Santiago de los Caballeros,República Dominicana,santiago-de-los-caballeros,republica-dominicana,19.0,0.0,,19.4399226,-70.7080428,7,Actividades en Santiago de los Caballeros,2026-01-29
2923,65,Jarabacoa,República Dominicana,jarabacoa,republica-dominicana,174.0,11.0,9.272727272727264,19.1239623,-70.649345,8,Actividades en Jarabacoa,2026-01-29
3211,65,Jamao al Norte,República Dominicana,jamao-al-norte,republica-dominicana,19.0,1.0,10.0,19.6347109,-70.4492711,11,Actividades en Jamao al Norte,2026-01-29
3277,65,Boca Chica,República Dominicana,boca-chica,republica-dominicana,160.0,8.0,7.75,18.4555605,-69.6283394,22,Actividades en Boca Chica,2026-01-29
3436,65,Sabana de la Mar,República Dominicana,sabana-de-la-mar,republica-dominicana,226.0,10.0,7.6,19.0567621,-69.4073297,12,Actividades en Sabana de la Mar,2026-01-29
3443,65,Baní,República Dominicana,bani,republica-dominicana,6.0,0.0,,18.2811494,-70.3482326,5,Actividades en Baní,2026-01-29
3444,65,Bahía de las Águilas,República Dominicana,bahia-de-las-aguilas,republica-dominicana,30.0,1.0,4.0,17.8310035,-71.6499247,3,Actividades en Bahía de las Águilas,2026-01-29
3673,65,Miches,República Dominicana,miches,republica-dominicana,214.0,19.0,7.8947368421052575,18.9826375,-69.0519798,14,Actividades en Miches,2026-01-29
3800,65,La Vega,República Dominicana,la-vega,republica-dominicana,0.0,0.0,,19.2206434,-70.563212,6,Actividades en La Vega,2026-01-29
4112,65,San Francisco de Macorís,República Dominicana,san-francisco-de-macoris,republica-dominicana,10.0,1.0,2.0,19.2981006,-70.2913778,3,Actividades en San Francisco de Macorís,2026-01-29
4525,65,Damajagua ,República Dominicana,damajagua,republica-dominicana,15.0,2.0,6.0,19.7300076,-70.8326286,4,Actividades en Damajagua ,2026-01-29
5079,65,Moca,República Dominicana,moca,republica-dominicana,0.0,0.0,,19.394237,-70.522373,5,Actividades en Moca,2026-01-29
5082,65,Azua,República Dominicana,azua,republica-dominicana,,,,18.4513939,-70.7335247,3,Actividades en Azua,2026-01-29
5160,65,Constanza,República Dominicana,constanza-republica-dominicana,republica-dominicana,2.0,0.0,,18.9128331,-70.7388442,6,Actividades en Constanza,2026-01-29
5217,65,Monte Cristi,República Dominicana,monte-cristi,republica-dominicana,2.0,0.0,,19.8452354,-71.6446351,4,Actividades en Monte Cristi,2026-01-29
5218,65,San Cristóbal,República Dominicana,san-cristobal,republica-dominicana,12.0,0.0,,18.4353359,-70.1604905,4,Actividades en San Cristóbal,2026-01-29
5245,65,Barahona,República Dominicana,barahona,republica-dominicana,21.0,2.0,10.0,18.2101516,-71.1032311,9,Actividades en Barahona,2026-01-29
5318,65,San Pedro de Macorís,República Dominicana,san-pedro-de-macoris,republica-dominicana,77.0,5.0,9.6,18.4697204,-69.3437849,3,Actividades en San Pedro de Macorís,2026-01-29
5430,65,Pedernales,República Dominicana,pedernales,republica-dominicana,2.0,1.0,10.0,18.0372324,-71.7441566,4,Actividades en Pedernales,2026-01-29
5521,65,Boca de Yuma,República Dominicana,boca-de-yuma,republica-dominicana,0.0,0.0,,18.377229225977626,-68.60796534095842,4,Actividades en  Boca de Yuma,2026-01-29
5613,65,Cabarete,República Dominicana,cabarete,republica-dominicana,0.0,0.0,,19.75028417499665,-70.41237488237523,27,Actividades en Cabarete,2026-01-29
5614,65,Sosúa,República Dominicana,sosua,republica-dominicana,7.0,0.0,,19.7629448,-70.5161335,23,Actividades en Sosúa,2026-01-29
5615,65,Río San Juan,República Dominicana,rio-san-juan,republica-dominicana,22.0,1.0,10.0,19.64367810319484,-70.07745265180182,7,Actividades en Río San Juan,2026-01-29
5616,65,Cabrera ,República Dominicana,cabrera,republica-dominicana,,,,19.64177928782765,-69.90460330781295,0,Actividades en Cabrera ,2026-01-29
5637,65,Bayahíbe,República Dominicana,bayahibe,republica-dominicana,150.0,9.0,9.11111111111111,18.36872100315659,-68.8394033242692,26,Actividades en Bayahíbe,2026-01-29
5681,65,Las Terrenas,República Dominicana,las-terrenas,republica-dominicana,852.0,22.0,7.818181818181824,19.299128331734266,-69.55587939481863,17,Actividades en Las Terrenas,2026-01-29
5716,65,Las Galeras,República Dominicana,las-galeras,republica-dominicana,666.0,10.0,8.2,19.28991849810303,-69.19923313583679,13,Actividades en Las Galeras,2026-01-29
5717,65,Las Cañitas,República Dominicana,las-canitas,republica-dominicana,,,,19.0161769153903,-69.26395409434747,0,Actividades en Las Cañitas,2026-01-29
5812,65,El Valle,República Dominicana,el-valle,republica-dominicana,0.0,0.0,,19.28348202636915,-69.33356935140627,4,Actividades en El Valle,2026-01-29
5815,65,Monte Plata,República Dominicana,monte-plata,republica-dominicana,0.0,0.0,,18.80809117312498,-69.78499380846175,3,Actividades en Monte Plata,2026-01-29
194,66,Quito,Ecuador,quito,ecuador,18637.0,1380.0,9.342980676322682,0.0022346,-78.458008,55,Actividades<strong> en Quito</strong>,2026-01-29
206,66,Guayaquil,Ecuador,guayaquil,ecuador,699.0,84.0,8.857142857095246,-2.1594988,-79.9339259,28,Actividades<strong> en Guayaquil</strong>,2026-01-29
209,66,Cuenca,Ecuador,cuenca-ecuador,ecuador,1609.0,150.0,9.106666666666667,-2.9071488,-79.0090641,18,Actividades<strong> en Cuenca</strong>,2026-01-29
393,66,Isla Isabela,Ecuador,isla-isabela,ecuador,613.0,41.0,9.073170731707313,-0.441438,-91.7478457,16,Actividades en Isla Isabela,2026-01-29
396,66,Isla Santa Cruz,Ecuador,isla-santa-cruz,ecuador,1512.0,98.0,8.163265306122444,-0.6284879,-90.639741,36,Actividades en Isla Santa Cruz,2026-01-29
397,66,Isla de San Cristóbal,Ecuador,isla-de-san-cristobal,ecuador,86.0,5.0,5.60000000000002,-0.8204504,-89.714852,14,Actividades en Isla de San Cristóbal,2026-01-29
2060,66,Baños de Agua Santa,Ecuador,banos-agua-santa,ecuador,420.0,37.0,8.432432432432456,-1.3952544,-78.4431984,25,Actividades en Baños de Agua Santa,2026-01-29
3188,66,Riobamba,Ecuador,riobamba,ecuador,117.0,15.0,9.866666666666667,-1.6647534,-78.6606378,14,Actividades en Riobamba,2026-01-29
3194,66,Loja,Ecuador,loja,ecuador,17.0,3.0,7.333333333333333,-3.999825,-79.2100167,2,Actividades en Loja,2026-01-29
3200,66,Machala,Ecuador,machala,ecuador,0.0,0.0,,-3.2590802,-79.9615079,2,Actividades en Machala,2026-01-29
3207,66,Manta,Ecuador,manta,ecuador,15.0,2.0,8.0,-0.9678832,-80.7134508,4,Actividades en Manta,2026-01-29
3999,66,Otavalo ,Ecuador,otavalo,ecuador,116.0,1.0,10.0,0.23333,-78.2776739,4,Actividades en Otavalo ,2026-01-29
4136,66,Puerto López,Ecuador,puerto-lopez,ecuador,55.0,1.0,10.0,-1.5543746,-80.824957,12,Actividades en Puerto López,2026-01-29
4659,66,Quero,Ecuador,quero,ecuador,0.0,0.0,,-1.3821496,-78.6160529,6,Actividades en Quero,2026-01-29
4904,66,Montañita,Ecuador,montanita,ecuador,3.0,0.0,,-1.8261248,-80.7533431,4,Actividades en Montañita,2026-01-29
5258,66,Puerto Misahuallí,Ecuador,puerto-misahualli,ecuador,0.0,0.0,,-1.033088,-77.6693487,1,Actividades en Puerto Misahuallí,2026-01-29
5261,66,Bucay,Ecuador,bucay,ecuador,2.0,0.0,,-2.2047188,-79.1983108,7,Actividades en Bucay,2026-01-29
5319,66,San Miguel,Ecuador,san-miguel,ecuador,0.0,0.0,,-2.544840152593502,-80.33078198001107,1,Actividades en San Miguel,2026-01-29
5324,66,Tarapoa,Ecuador,tarapoa,ecuador,2.0,0.0,,-0.1246938,-76.3424205,1,Actividades en Tarapoa,2026-01-29
5337,66,Naranjal,Ecuador,naranjal,ecuador,,,,-2.6730643,-79.6180265,1,Actividades en Naranjal,2026-01-29
97,67,El Cairo,Egipto,el-cairo,egipto,80583.0,6774.0,8.34702391496899,30.0443769,31.2350321,39,Actividades<strong> en El Cairo</strong>,2026-01-29
98,67,Lúxor,Egipto,luxor,egipto,19755.0,1619.0,8.002470660901794,25.6873096,32.6389299,17,Actividades<strong> en Lúxor</strong>,2026-01-29
99,67,Asuán,Egipto,asuan,egipto,18636.0,1492.0,7.5809651474531154,24.0889356,32.8995895,16,Actividades<strong> en Asuán</strong>,2026-01-29
100,67,Hurghada,Egipto,hurghada,egipto,3734.0,300.0,8.013333333333351,27.257807,33.8111537,31,Actividades<strong> en Hurghada</strong>,2026-01-29
101,67,Sharm el-Sheij,Egipto,sharm-el-sheij,egipto,1590.0,134.0,6.805970149238814,27.9158618,34.3290126,15,Actividades<strong> en Sharm el-Sheij</strong>,2026-01-29
141,67,Alejandría,Egipto,alejandria,egipto,728.0,56.0,8.249999999999995,31.201073,29.919481,5,Actividades<strong> en Alejandría</strong>,2026-01-29
391,67,Port Said,Egipto,port-said,egipto,61.0,5.0,7.6,31.2386733,32.2501501,3,Actividades en Port Said,2026-01-29
4515,67,Giza,Egipto,giza,egipto,7602.0,375.0,9.88,30.0167698,31.1196029,29,Actividades en Giza,2026-01-29
4977,67,Marsa Alam,Egipto,marsa-alam,egipto,92.0,10.0,7.00000000000001,25.0684153,34.8841881,14,Actividades en Marsa Alam,2026-01-29
5418,67,El Gouna,Egipto,el-gouna,egipto,10.0,0.0,,27.3956937,33.6096658,3,Actividades en El Gouna,2026-01-29
5483,67,Ain Sujna,Egipto,ain-sujna,egipto,0.0,0.0,,29.6510962,32.2287191,4,Actividades en Ain Sujna,2026-01-29
1188,68,San Salvador,El Salvador,san-salvador,el-salvador,3436.0,255.0,9.37254901959215,13.6916351,-89.2849059,35,Actividades en San Salvador,2026-01-29
2792,68,La Unión,El Salvador,la-union,el-salvador,23.0,2.0,7.0,13.337501,-87.8531456,5,Actividades en La Unión,2026-01-29
5477,68,El Tunco,El Salvador,el-tunco,el-salvador,0.0,0.0,,13.4945714,-89.3837732,15,Actividades en El Tunco,2026-01-29
5481,68,El Cuco,El Salvador,el-cuco,el-salvador,0.0,0.0,,13.1759451,-88.1094954,2,Actividades en El Cuco,2026-01-29
5591,68,Acajutla,El Salvador,acajutla,el-salvador,2.0,0.0,,13.59036245966031,-89.83234297292172,2,Actividades en Acajutla,2026-01-29
5648,68,Suchitoto,El Salvador,suchitoto,el-salvador,1.0,0.0,,13.93721174357739,-89.02632590262024,3,Actividades en Suchitoto,2026-01-29
